,City,Climate Classification,Lat,Lon,Country,Population
0,Tokyo,Cfa,35.6839,139.7744,Japan,39105000.0
1,Jakarta,Af,-6.2146,106.8451,Indonesia,35362000.0
2,Delhi,BSk,28.6667,77.2167,India,31870000.0
3,Delhi,BSk,37.4306,-120.7759,United States,12301.0
4,Manila,Am,14.6,120.9833,Philippines,23971000.0
5,São Paulo,Cfa,-23.5504,-46.6339,Brazil,22495000.0
6,Seoul,Dwa,37.56,126.99,South Korea,22394000.0
7,Mumbai,Aw,19.0758,72.8775,India,22186000.0
8,Shanghai,Cfa,31.1667,121.4667,China,22118000.0
9,Mexico City,Cwb,19.4333,-99.1333,Mexico,21505000.0
10,Guangzhou,Cwa,23.1288,113.259,China,21489000.0
11,Cairo,Dfb,30.0444,31.2358,Egypt,19787000.0
12,Cairo,Dfb,30.8791,-84.205,United States,9369.0
13,Cairo,Dfb,42.2965,-74.0205,United States,6423.0
14,Beijing,Dwa,39.904,116.4075,China,19437000.0
15,New York,Cfa,40.6943,-73.9249,United States,18713220.0
16,Kolkāta,Aw,22.5727,88.3639,India,18698000.0
17,Moscow,Csb,55.7558,37.6178,Russia,17693000.0
18,Moscow,Csb,46.7307,-116.9986,United States,26145.0
19,Bangkok,Aw,13.75,100.5167,Thailand,17573000.0
20,Dhaka,Aw,23.7289,90.3944,Bangladesh,16839000.0
21,Buenos Aires,As,-34.5997,-58.3819,Argentina,16216000.0
22,Buenos Aires,As,3.0164,-76.6411,Colombia,34631.0
23,Buenos Aires,As,9.1985,-83.2816,Costa Rica,29454.0
24,Buenos Aires,As,-7.7258,-35.3269,Brazil,12537.0
25,Ōsaka,Cfa,34.752,135.4582,Japan,15490000.0
26,Lagos,Csa,6.45,3.4,Nigeria,15487000.0
27,Lagos,Csa,37.1,-8.6667,Portugal,31049.0
28,Istanbul,Csa,41.01,28.9603,Turkey,15311000.0
29,Karachi,BWh,24.86,67.01,Pakistan,15292000.0
30,Kinshasa,Aw,-4.3317,15.3139,Congo (Kinshasa),15056000.0
31,Shenzhen,Cwa,22.535,114.054,China,14678000.0
32,Bangalore,Aw,12.9791,77.5913,India,13999000.0
33,Ho Chi Minh City,Aw,10.8167,106.6333,Vietnam,13954000.0
34,Tehran,Csa,35.7,51.4167,Iran,13819000.0
35,Los Angeles,Csb,34.1139,-118.4068,United States,12750807.0
36,Rio de Janeiro,Aw,-22.9083,-43.1964,Brazil,12486000.0
37,Chengdu,Cwa,30.66,104.0633,China,11920000.0
38,Baoding,Dwa,38.8671,115.4845,China,11860000.0
39,Chennai,Aw,13.0825,80.275,India,11564000.0
40,Lahore,BSh,31.5497,74.3436,Pakistan,11148000.0
41,London,Cfa,51.5072,-0.1275,United Kingdom,11120000.0
42,London,Cfa,42.9836,-81.2497,Canada,383822.0
43,London,Cfa,37.1175,-84.0767,United States,37714.0
44,London,Cfa,39.8936,-83.4376,United States,14870.0
45,Paris,Dfb,48.8566,2.3522,France,11027000.0
46,Paris,Dfb,33.6688,-95.546,United States,26010.0
47,Paris,Dfb,38.2016,-84.2719,United States,12485.0
48,Paris,Dfb,36.2934,-88.3065,United States,10536.0
49,Paris,Dfb,39.6149,-87.6904,United States,8394.0
50,Paris,Dfb,44.2445,-70.4883,United States,5111.0
51,Tianjin,Dwa,39.1467,117.2056,China,10932000.0
52,Linyi,Cwa,35.0606,118.3425,China,10820000.0
53,Shijiazhuang,Cwa,38.0422,114.5086,China,10784600.0
54,Zhengzhou,Cwa,34.7492,113.6605,China,10136000.0
55,Nanyang,Cwa,32.9987,112.5292,China,10013600.0
56,Hyderābād,Aw,17.3617,78.4747,India,9840000.0
57,Wuhan,Cfa,30.5872,114.2881,China,9729000.0
58,Handan,Cwa,36.6116,114.4894,China,9549700.0
59,Nagoya,Cfa,35.1167,136.9333,Japan,9522000.0
60,Weifang,Cwa,36.7167,119.1,China,9373000.0
61,Lima,Dfa,-12.06,-77.0375,Peru,8992000.0
62,Lima,Dfa,40.741,-84.1121,United States,68878.0
63,Zhoukou,Cwa,33.625,114.6418,China,8953172.0
64,Luanda,BSh,-8.8383,13.2344,Angola,8883000.0
65,Ganzhou,Cfa,25.8292,114.9336,China,8677600.0
66,Tongshan,Cwa,34.261,117.1859,China,8669000.0
67,Kuala Lumpur,Af,3.1478,101.6953,Malaysia,8639000.0
68,Chicago,Dfa,41.8373,-87.6862,United States,8604203.0
69,Heze,Cwa,35.2333,115.4333,China,8287693.0
70,Chongqing,Cfa,29.55,106.5069,China,8261000.0
71,Hanoi,Cwa,21.0245,105.8412,Vietnam,8246600.0
72,Fuyang,Cfa,32.8986,115.8045,China,8200264.0
73,Fuyang,Cfa,30.0553,119.95,China,771000.0
74,Changsha,Cwa,28.1987,112.9709,China,8154700.0
75,Changsha,Cwa,22.3762,112.6877,China,717700.0
76,Dongguan,BSk,23.0475,113.7493,China,8142000.0
77,Dongguan,BSk,39.014,111.0768,China,75135.0
78,Jining,Dwb,35.4,116.5667,China,8081905.0
79,Jining,Dwb,41.03,113.08,China,281716.0
80,Jinan,Cwa,36.6667,116.9833,China,7967400.0
81,Pune,Aw,18.5196,73.8553,India,7948000.0
82,Foshan,Cwa,23.0292,113.1056,China,7905700.0
83,Bogotá,Cfb,4.6126,-74.0705,Colombia,7743955.0
84,Ahmedabad,BSh,23.03,72.58,India,7717000.0
85,Nanjing,Cfa,32.05,118.7667,China,7729000.0
86,Changchun,Dwa,43.9,125.2,China,7674439.0
87,Tangshan,Dwa,39.6292,118.1742,China,7577289.0
88,Cangzhou,Cwa,38.3037,116.8452,China,7544300.0
89,Dar es Salaam,Aw,-6.8,39.2833,Tanzania,7461000.0
90,Hefei,Cfa,31.8639,117.2808,China,7457027.0
91,Hong Kong,Cwa,22.3069,114.1831,Hong Kong,7398000.0
92,Shaoyang,Cfa,27.2418,111.4725,China,7370500.0
93,Shaoyang,Cfa,32.9387,119.8404,China,1253548.0
94,Zhanjiang,Cwa,21.1967,110.4031,China,7332000.0
95,Shangqiu,Cwa,34.4259,115.6467,China,7325300.0
96,Nantong,Cfa,31.9829,120.8873,China,7283622.0
97,Yancheng,Cwa,33.3936,120.1339,China,7260240.0
98,Nanning,Cfa,22.8192,108.315,China,7254100.0
99,Hengyang,Cfa,26.8968,112.5857,China,7243400.0
100,Zhumadian,Cwa,32.9773,114.0253,China,7231234.0
101,Shenyang,Dwa,41.8039,123.4258,China,7208000.0
102,Xingtai,Cwa,37.0659,114.4753,China,7104103.0
103,Xi’an,Cwa,34.2667,108.9,China,7090000.0
104,Santiago,Aw,-33.45,-70.6667,Chile,7026000.0
105,Santiago,Aw,19.45,-70.7,Dominican Republic,1343423.0
106,Santiago,Aw,16.6833,121.55,Philippines,148580.0
107,Santiago,Aw,8.1004,-80.9833,Panama,45955.0
108,Santiago,Aw,-29.1919,-54.8669,Brazil,50635.0
109,Santiago,Aw,25.4333,-100.1333,Mexico,37886.0
110,Santiago,Aw,9.2654,125.5602,Philippines,28657.0
111,Santiago,Aw,17.3,120.45,Philippines,19471.0
112,Santiago,Aw,9.8291,-84.3044,Costa Rica,12600.0
113,Santiago,Aw,-14.1892,-75.7126,Peru,10449.0
114,Santiago,Aw,18.45,-95.8333,Mexico,5790.0
115,Yantai,Cwa,37.3997,121.2664,China,6968202.0
116,Riyadh,BWh,24.65,46.71,Saudi Arabia,6889000.0
117,Luoyang,Cwa,34.6587,112.4245,China,6888500.0
118,Kunming,Cwb,25.0433,102.7061,China,6850000.0
119,Shangrao,Cfa,28.4419,117.9633,China,6810700.0
120,Hangzhou,Cfa,30.25,120.1675,China,6713000.0
121,Bijie,Cwb,27.3019,105.2863,China,6686100.0
122,Quanzhou,Cfa,24.9139,118.5858,China,6480000.0
123,Miami,Cfa,25.7839,-80.2102,United States,6445545.0
124,Miami,Cfa,36.8877,-94.8718,United States,15571.0
125,Wuxi,Cfa,31.5667,120.2833,China,6372624.0
126,Huanggang,Cfa,30.45,114.875,China,6333000.0
127,Maoming,Cwa,21.6618,110.9178,China,6313200.0
128,Nanchong,Cwa,30.7991,106.0784,China,6278614.0
129,Zunyi,Cfa,27.705,106.9336,China,6270700.0
130,Qujing,Cwb,25.5102,103.8029,China,6155400.0
131,Baghdad,BWh,33.35,44.4167,Iraq,6107000.0
132,Xinyang,Cfa,32.1264,114.0672,China,6109106.0
133,Jieyang,Cfa,23.5533,116.3649,China,6089400.0
134,Khartoum,BWh,15.6031,32.5265,Sudan,6017000.0
135,Madrid,Af,40.4167,-3.7167,Spain,6006000.0
136,Madrid,Af,4.7306,-74.2639,Colombia,112254.0
137,Madrid,Af,9.2667,125.9667,Philippines,16653.0
138,Allahābād,Csa,25.45,81.85,India,5954391.0
139,Yulin,Cfa,22.6293,110.1507,China,5849700.0
140,Changde,Cfa,29.0397,111.6839,China,5827200.0
141,Liaocheng,Cwa,36.45,115.9833,China,5789863.0
142,Qingdao,Cwa,36.1167,120.4,China,5775000.0
143,Dallas,Dfb,32.7936,-96.7662,United States,5743938.0
144,Dallas,Dfb,44.9222,-123.3131,United States,17859.0
145,Dallas,Dfb,33.9153,-84.8416,United States,13981.0
146,Dallas,Dfb,41.3604,-75.9662,United States,9208.0
147,Nangandao,Cwa,35.2992,113.8851,China,5708191.0
148,Xiangyang,Cwa,32.0654,112.1531,China,5680000.0
149,Xiangyang,Cwa,34.2999,108.4816,China,541554.0
150,Philadelphia,Cfa,40.0077,-75.1339,United States,5649300.0
151,Philadelphia,Cfa,32.7761,-89.1221,United States,7345.0
152,Giza,BWh,29.987,31.2118,Egypt,5598402.0
153,Lu’an,Cfa,31.7542,116.5078,China,5611701.0
154,Zhaotong,Cwb,27.3328,103.7144,China,5591000.0
155,Yichun,Dwb,27.8041,114.383,China,5573200.0
156,Yichun,Dwb,47.7235,128.8893,China,1148126.0
157,Dezhou,Cwa,37.4513,116.3105,China,5568235.0
158,Nairobi,Cfb,-1.2864,36.8172,Kenya,5545000.0
159,Nanchang,Cfa,28.6842,115.8872,China,5545500.0
160,Tai’an,Cwa,36.2001,117.0809,China,5494207.0
161,Dazhou,Cwa,31.2152,107.4947,China,5468097.0
162,Houston,Cfb,29.7863,-95.3889,United States,5464251.0
163,Houston,Cfb,55.867,-4.5521,United Kingdom,6430.0
164,Guadalajara,Csa,20.6767,-103.3475,Mexico,5437000.0
165,Guadalajara,Csa,40.6337,-3.1674,Spain,87064.0
166,Yongzhou,Cfa,26.4515,111.5953,China,5452100.0
167,Atlanta,Cfa,33.7627,-84.4224,United States,5449398.0
168,Atlanta,Cfa,33.1136,-94.1672,United States,5526.0
169,Rangoon,Am,16.795,96.16,Myanmar,5430000.0
170,Toronto,Dfb,43.7417,-79.3733,Canada,5429524.0
171,Suihua,Dwa,46.6384,126.9808,China,5418153.0
172,Saint Petersburg,Dfb,59.95,30.3167,Russia,5384342.0
173,Washington,Dfa,38.9047,-77.0163,United States,5379184.0
174,Washington,Dfa,54.9,-1.52,United Kingdom,67158.0
175,Washington,Dfa,39.747,-75.0724,United States,47833.0
176,Washington,Dfa,37.1304,-113.4877,United States,29174.0
177,Washington,Dfa,40.7877,-74.7918,United States,18429.0
178,Washington,Dfa,40.7049,-89.4346,United States,16516.0
179,Washington,Dfa,35.5587,-77.0545,United States,16014.0
180,Washington,Dfa,40.7587,-74.9825,United States,15357.0
181,Washington,Dfa,39.7494,-77.558,United States,14627.0
182,Washington,Dfa,38.5514,-91.0151,United States,14417.0
183,Washington,Dfa,38.6587,-87.1591,United States,13565.0
184,Washington,Dfa,40.174,-80.2466,United States,13433.0
185,Washington,Dfa,40.9884,-74.0637,United States,9237.0
186,Washington,Dfa,41.2982,-91.6928,United States,7230.0
187,Washington,Dfa,40.5093,-79.6011,United States,7109.0
188,Washington,Dfa,40.7389,-75.6392,United States,6748.0
189,Washington,Dfa,40.8467,-75.1972,United States,5232.0
190,Qiqihar,Dwa,47.3398,123.9512,China,5367003.0
191,Suzhou,Cfa,33.6333,116.9683,China,5352924.0
192,Suzhou,Cfa,31.304,120.6164,China,5103000.0
193,Shantou,Cwa,23.3735,116.6941,China,5319028.0
194,Weinan,Cwa,34.4996,109.4684,China,5286077.0
195,Changzhou,Cfa,31.8122,119.9692,China,5278121.0
196,Singapore,Af,1.3,103.8,Singapore,5271000.0
197,Fuzhou,Cfa,26.0769,119.2917,China,5245000.0
198,Fuzhou,Cfa,27.9814,116.3577,China,4047200.0
199,Pudong,Cfa,31.2231,121.5397,China,5187200.0
200,Belo Horizonte,Cwa,-19.9281,-43.9419,Brazil,5159000.0
201,Zhangzhou,Cfa,24.5093,117.6612,China,5140000.0
202,Yuncheng,Cwa,35.0304,110.998,China,5134779.0
203,Xianyang,Cwa,34.35,108.7167,China,5096001.0
204,Guilin,Cfa,25.2667,110.2833,China,5085500.0
205,Taizhou,Cfa,32.4831,119.9,China,5031000.0
206,Taizhou,Cfa,28.6583,121.4221,China,1030200.0
207,Abidjan,Aw,5.3364,-4.0267,Côte d'Ivoire,4980000.0
208,Huaihua,Cfa,27.5494,109.9592,China,4979600.0
209,Ji’an,Cfa,27.1172,114.9793,China,4956600.0
210,Xiaoganzhan,Cfa,30.9273,113.911,China,4921000.0
211,Pingdingshan,Cwa,33.735,113.2999,China,4904701.0
212,Jiujiang,Cfa,29.7048,116.0021,China,4896800.0
213,Sūrat,As,21.17,72.83,India,4875000.0
214,Guiyang,Cwa,26.5794,106.7078,China,4881900.0
215,Alexandria,Cfb,31.2,29.9167,Egypt,4870000.0
216,Alexandria,Cfb,38.8185,-77.0861,United States,159428.0
217,Alexandria,Cfb,43.9686,25.3333,Romania,45434.0
218,Alexandria,Cfb,31.2923,-92.4702,United States,80129.0
219,Alexandria,Cfb,45.8777,-95.3766,United States,21204.0
220,Alexandria,Cfb,-6.4128,-38.0158,Brazil,13507.0
221,Alexandria,Cfb,38.9621,-84.386,United States,9715.0
222,Alexandria,Cfb,55.98,-4.58,United Kingdom,6860.0
223,Bozhou,Cwa,33.8626,115.7742,China,4850657.0
224,Sydney,Cfa,-33.865,151.2094,Australia,4840600.0
225,Huizhou,Cwa,23.1115,114.4152,China,4830000.0
226,Huai’an,Cwa,33.5,119.1331,China,4799889.0
227,Chenzhou,Cfa,25.7989,113.0267,China,4744500.0
228,Barcelona,Af,41.3825,2.1769,Spain,4735000.0
229,Barcelona,Af,10.1333,-64.6833,Venezuela,448016.0
230,Barcelona,Af,12.8667,124.1333,Philippines,20987.0
231,Anqing,Cfa,30.5,117.0333,China,4723000.0
232,Suqian,Cwa,33.9331,118.2831,China,4719178.0
233,Boston,Dfb,42.3188,-71.0846,United States,4688346.0
234,Boston,Dfb,7.8667,126.3667,Philippines,14618.0
235,Boston,Dfb,42.6528,-78.7555,United States,8042.0
236,Jiangmen,Cwa,22.5833,113.0833,China,4630300.0
237,Mianyang,Cwa,31.4669,104.7385,China,4613862.0
238,Harbin,Dwa,45.75,126.6333,China,4583000.0
239,Huanglongsi,Cwa,34.7936,114.3403,China,4564900.0
240,Melbourne,Cfa,-37.8136,144.9631,Australia,4529500.0
241,Melbourne,Cfa,28.1085,-80.6627,United States,83029.0
242,Zibo,Cwa,36.7831,118.0497,China,4530597.0
243,Dalian,Dwa,38.9,121.6,China,4480000.0
244,Hengshui,BSk,37.7348,115.686,China,4472000.0
245,Yibin,Cwa,28.7596,104.64,China,4471896.0
246,Yangzhou,Cfa,32.3912,119.4363,China,4459760.0
247,Timbío,Cfb,2.3528,-76.6819,Colombia,4444444.0
248,Johannesburg,Cwb,-26.2044,28.0416,South Africa,4434827.0
249,Yiyang,Cfa,28.5833,112.3333,China,4413800.0
250,Yiyang,Cfa,26.4103,112.3913,China,810447.0
251,Guigang,Cfa,23.0961,109.6092,China,4409200.0
252,Xinpu,Cwa,34.5906,119.1801,China,4393482.0
253,Meizhou,Cfa,24.2998,116.1191,China,4378800.0
254,Casablanca,Csb,33.5992,-7.62,Morocco,4370000.0
255,Casablanca,Csb,-33.3167,-71.4167,Chile,21874.0
256,Langfang,Dwa,39.5196,116.7006,China,4358839.0
257,Zhangjiakou,Dwb,40.8108,114.8811,China,4345485.0
258,Chifeng,BSk,42.2663,118.9223,China,4341245.0
259,Linfen,BSk,36.0812,111.5087,China,4316610.0
260,Jiangguanchi,Cwa,34.0244,113.8201,China,4307488.0
261,Kabul,Dsb,34.5328,69.1658,Afghanistan,4273156.0
262,Phoenix,BSh,33.5722,-112.0891,United States,4219697.0
263,Luzhou,Cwa,28.8918,105.4409,China,4218427.0
264,Luzhou,Cwa,23.3687,114.5196,China,15890.0
265,Taiyuan,Dwa,37.8733,112.5425,China,4201592.0
266,Zhaoqing,Cfa,23.05,112.4667,China,4151700.0
267,Xiaoxita,Cfa,30.7083,111.2803,China,4137900.0
268,Xiamen,Cfa,24.4797,118.0819,China,4110000.0
269,Liuzhou,Cfa,24.3264,109.4281,China,4041700.0
270,Zhuzhou,Cfa,27.8407,113.1469,China,4020800.0
271,Amman,BSh,31.95,35.9333,Jordan,4007526.0
272,Jeddah,BWh,21.5428,39.1728,Saudi Arabia,3976000.0
273,Chuzhou,Cfa,32.3062,118.3115,China,3937868.0
274,Loudi,Cfa,27.7378,111.9974,China,3931800.0
275,Deyang,Cwa,31.1289,104.395,China,3877000.0
276,Qingyuan,Cfa,23.6842,113.0507,China,3874000.0
277,Qingyuan,Cfa,24.5004,108.6667,China,47062.0
278,Kano,BSh,12.0,8.5167,Nigeria,3848885.0
279,Wuhu,Cfa,31.334,118.3622,China,3842100.0
280,Seattle,Csb,47.6211,-122.3244,United States,3789215.0
281,Yokohama,Cfa,35.4333,139.6333,Japan,3757630.0
282,Binzhou,Cwa,37.3806,118.0125,China,3748474.0
283,Baojishi,Cwb,34.3609,107.1751,China,3738700.0
284,Zaozhuang,Cwa,34.8667,117.55,China,3729140.0
285,Neijiang,Cwa,29.5872,105.0635,China,3702847.0
286,Baicheng,BWk,23.901,106.6194,China,3669400.0
287,Baicheng,BWk,45.6148,122.832,China,2032356.0
288,Baicheng,BWk,41.7957,81.8715,China,49207.0
289,Berlin,Dfb,52.5167,13.3833,Germany,3664088.0
290,Berlin,Dfb,41.6114,-72.7758,United States,20484.0
291,Berlin,Dfb,44.4869,-71.2599,United States,11237.0
292,Berlin,Dfb,39.7915,-74.9375,United States,7536.0
293,Berlin,Dfb,43.9704,-88.9505,United States,5385.0
294,Anshan,Dwa,41.1066,122.9895,China,3645884.0
295,Anshan,Dwa,39.7144,118.9964,China,45804.0
296,Lanzhou,BSk,36.0617,103.8318,China,3616163.0
297,Puyang,Cwa,35.7639,115.03,China,3598740.0
298,San Francisco,Cwb,37.7562,-122.443,United States,3592294.0
299,San Francisco,Cwb,13.7,-88.1,El Salvador,21049.0
300,San Francisco,Cwb,30.9,-112.6,Mexico,89122.0
301,San Francisco,Cwb,8.505,125.9771,Philippines,80760.0
302,San Francisco,Cwb,-31.4356,-62.0714,Argentina,62000.0
303,San Francisco,Cwb,10.65,124.35,Philippines,59236.0
304,San Francisco,Cwb,16.8017,-89.9342,Guatemala,47919.0
305,San Francisco,Cwb,15.6667,-87.0333,Honduras,11206.0
306,San Francisco,Cwb,4.9711,-74.2892,Colombia,8304.0
307,San Francisco,Cwb,20.5333,-102.5,Mexico,5167.0
308,Jiaozuo,Cwa,35.229,113.2304,China,3590700.0
309,Hechi,Cfa,24.6928,108.085,China,3545700.0
310,Montréal,Dfb,45.5089,-73.5617,Canada,3519595.0
311,Detroit,Dfa,42.3834,-83.1024,United States,3506126.0
312,Chengde,Dwb,40.9739,117.9322,China,3473201.0
313,Busan,Cfa,35.1,129.0403,South Korea,3453198.0
314,Algiers,Csa,36.7764,3.0586,Algeria,3415811.0
315,Hanzhong,Cwa,33.0794,107.026,China,3416196.0
316,Shiyan,Cwa,32.6351,110.7755,China,3398000.0
317,Shiyan,Cwa,23.1251,113.8633,China,122802.0
318,Lucknow,Csa,26.847,80.947,India,3382000.0
319,Siping,Dwa,43.1715,124.3644,China,3385156.0
320,Yulinshi,BSk,38.2655,109.7388,China,3351436.0
321,Changzhi,Dwa,36.1953,113.097,China,3334565.0
322,Qinzhou,Cwa,21.95,108.6167,China,3304400.0
323,Bazhou,Dwa,31.8576,106.7559,China,3283148.0
324,Bazhou,Dwa,39.1235,116.386,China,622975.0
325,Qincheng,Dwb,34.5809,105.7311,China,3262549.0
326,Zhongshan,Dwb,22.5333,113.35,China,3260000.0
327,Zhongshan,Dwb,34.943,105.8771,China,27147.0
328,Suining,Cwa,30.5098,105.5737,China,3252619.0
329,Leshan,Cwa,29.5854,103.7575,China,3235759.0
330,San Diego,Aw,32.8312,-117.1225,United States,3220118.0
331,San Diego,Aw,10.2558,-67.9539,Venezuela,187215.0
332,San Diego,Aw,14.7833,-89.7833,Guatemala,7732.0
333,Faisalabad,BSh,31.418,73.079,Pakistan,3203846.0
334,Guang’an,Cwa,30.4673,106.6336,China,3205476.0
335,Tongren,Cfa,27.7233,109.1885,China,3168800.0
336,Bengbu,Cfa,32.9354,117.3531,China,3164467.0
337,Santa Cruz,Aw,-17.7892,-63.1975,Bolivia,3151676.0
338,Santa Cruz,Aw,28.4667,-16.25,Spain,208563.0
339,Santa Cruz,Aw,36.9789,-122.0346,United States,176428.0
340,Santa Cruz,Aw,14.2833,121.4167,Philippines,123574.0
341,Santa Cruz,Aw,6.8333,125.4167,Philippines,101125.0
342,Santa Cruz,Aw,15.7667,119.9167,Philippines,63839.0
343,Santa Cruz,Aw,13.4833,122.0333,Philippines,54692.0
344,Santa Cruz,Aw,32.675,-16.8309,Portugal,43005.0
345,Santa Cruz,Aw,13.1167,120.85,Philippines,42417.0
346,Santa Cruz,Aw,17.0833,120.45,Philippines,41366.0
347,Santa Cruz,Aw,-6.2289,-36.0228,Brazil,35797.0
348,Santa Cruz,Aw,-0.5333,-90.35,Ecuador,11262.0
349,Santa Cruz,Aw,-6.5328,-38.0619,Brazil,6579.0
350,Qinhuangdao,Dwa,39.9398,119.5881,China,3146300.0
351,Tongliao,Dwa,43.6172,122.264,China,3139153.0
352,Jinzhou,Dwa,41.1144,121.1292,China,3126463.0
353,Zhenjiang,Cfa,32.2109,119.4551,China,3113384.0
354,Ürümqi,BSk,43.8225,87.6125,China,3112559.0
355,Heyuan,Cwa,23.7503,114.6923,China,3093900.0
356,Jaipur,Aw,26.9167,75.8667,India,3073350.0
357,Jaipur,Aw,23.4313,86.1493,India,10259.0
358,Xinzhou,Dwb,38.4178,112.7233,China,3067501.0
359,Wuzhou,Cfa,23.4833,111.3167,China,3061100.0
360,Addis Ababa,Cwb,9.0272,38.7369,Ethiopia,3041002.0
361,Chaoyang,Dwa,41.5757,120.4486,China,3044641.0
362,Brasília,Aw,-15.7939,-47.8828,Brazil,3015268.0
363,Mashhad,BSk,36.3069,59.6042,Iran,3001184.0
364,Shaoguan,Cfa,24.8011,113.5927,China,2997600.0
365,Kuwait City,BWh,29.375,47.98,Kuwait,2989000.0
366,Shanwei,Cwa,22.7664,115.3331,China,2993600.0
367,Quezon City,Af,14.6333,121.0333,Philippines,2960048.0
368,Minneapolis,Dfa,44.9635,-93.2678,United States,2977172.0
369,Kyiv,Dfb,50.45,30.5236,Ukraine,2963199.0
370,Sanaa,BWk,15.35,44.2,Yemen,2957000.0
371,Meishan,Cwa,30.0575,103.8381,China,2950545.0
372,Meishan,Cwa,34.1736,112.839,China,936000.0
373,Guatemala City,Cwb,14.6099,-90.5252,Guatemala,2934841.0
374,Incheon,Cwa,37.4639,126.6486,South Korea,2913024.0
375,Ningde,Cfa,26.6617,119.5228,China,2910000.0
376,Tampa,Cfa,27.9942,-82.4451,United States,2908063.0
377,Daqing,Dwa,46.5979,125.008,China,2904532.0
378,Putian,Cfa,25.4394,119.0103,China,2900000.0
379,Bandung,Af,-6.95,107.5667,Indonesia,2875673.0
380,Surabaya,Aw,-7.2458,112.7378,Indonesia,2885555.0
381,Salvador,Aw,-12.9708,-38.5108,Brazil,2886698.0
382,Salvador,Aw,20.2094,-75.2231,Cuba,45773.0
383,Denver,BSk,39.7621,-104.8759,United States,2876625.0
384,Rome,Dfb,41.8931,12.4828,Italy,2872800.0
385,Rome,Dfb,34.2661,-85.1862,United States,61537.0
386,Rome,Dfb,43.226,-75.4909,United States,32148.0
387,La Paz,BWk,-16.4942,-68.1475,Bolivia,2867504.0
388,La Paz,BWk,24.1422,-110.3108,Mexico,250141.0
389,La Paz,BWk,14.3169,-87.6831,Honduras,41250.0
390,La Paz,BWk,15.4431,120.7289,Philippines,68952.0
391,La Paz,BWk,8.2801,125.8092,Philippines,30969.0
392,La Paz,BWk,10.8833,124.95,Philippines,19174.0
393,La Paz,BWk,17.6746,120.6864,Philippines,16493.0
394,La Paz,BWk,-33.4661,-67.55,Argentina,4400.0
395,Hohhot,BSk,40.8151,111.6629,China,2866615.0
396,Xiangtan,Cfa,27.8431,112.9228,China,2864800.0
397,Pyongyang,Dwa,39.03,125.73,North Korea,2863000.0
398,Taichung,Cfa,24.15,120.6667,Taiwan,2803894.0
399,Weihai,Cwa,37.5,122.1,China,2804771.0
400,Rizhao,Cwa,35.4164,119.4331,China,2801013.0
401,Mudanjiang,Dwb,44.5861,129.5997,China,2798723.0
402,Kaohsiung,Am,22.6167,120.3,Taiwan,2773533.0
403,Guayaquil,Aw,-2.19,-79.8875,Ecuador,2723665.0
404,Tieling,Dwa,42.2841,123.8365,China,2717732.0
405,Cawnpore,Csa,26.4725,80.3311,India,2701324.0
406,Dingxi,BSk,35.5806,104.6263,China,2698624.0
407,Taipei,Cfa,25.0478,121.5319,Taiwan,2684567.0
408,Nanping,Cfa,26.6448,118.1728,China,2690000.0
409,Zigong,Cwa,29.3498,104.7645,China,2678899.0
410,Chaozhou,Cfa,23.67,116.63,China,2656600.0
411,Baotou,BSk,40.6562,109.8345,China,2650364.0
412,Gulou,Cfa,26.0819,119.2981,China,2606000.0
413,Longyan,Cfa,25.0881,117.0244,China,2640000.0
414,Ankang,Cwa,32.6877,109.0235,China,2629906.0
415,Baoshan,Cwb,25.1211,99.169,China,2627000.0
416,Huludao,Dwa,40.7094,120.8378,China,2623541.0
417,Antananarivo,Cwb,-18.9386,47.5214,Madagascar,2610000.0
418,Yanjiang,Cwa,30.1256,104.6397,China,2593843.0
419,Chattogram,Am,22.335,91.8325,Bangladesh,2581643.0
420,Santo Domingo,Cfb,18.4764,-69.8933,Dominican Republic,2581827.0
421,Santo Domingo,Cfb,15.5833,120.8667,Philippines,61092.0
422,Santo Domingo,Cfb,13.235,123.7769,Philippines,37765.0
423,Santo Domingo,Cfb,17.6333,120.4083,Philippines,29041.0
424,Santo Domingo,Cfb,6.4708,-75.1658,Colombia,10759.0
425,Sanming,Cfa,26.2658,117.6302,China,2580000.0
426,Longba,Cwb,33.535,105.349,China,2567718.0
427,Brooklyn,Cfb,40.6501,-73.9496,United States,2559903.0
428,Brooklyn,Cfb,41.4349,-81.7498,United States,10646.0
429,Brooklyn,Cfb,41.787,-71.9543,United States,8238.0
430,Yangjiang,Cwa,21.8556,111.9627,China,2555600.0
431,Jiamusi,Dwb,46.8081,130.3653,China,2552097.0
432,Ibadan,Aw,7.3964,3.9167,Nigeria,2550593.0
433,Luohe,Cwa,33.583,114.0109,China,2544266.0
434,Lincang,Cwb,23.8864,100.0871,China,2536000.0
435,Medellín,Af,6.2447,-75.5748,Colombia,2529403.0
436,Xuanzhou,Cfa,30.9475,118.7518,China,2532938.0
437,Yunfu,Cwa,22.9242,112.0353,China,2526900.0
438,Yunfu,Cwa,28.6331,104.4181,China,103532.0
439,Dubai,BWh,25.2697,55.3094,United Arab Emirates,2502715.0
440,Mirzāpur,Csa,25.15,82.58,India,2496970.0
441,Tashkent,Csa,41.3,69.2667,Uzbekistan,2497900.0
442,Guangyuan,Cwa,32.4353,105.8398,China,2484122.0
443,Cali,Af,3.44,-76.5197,Colombia,2471474.0
444,Huangshi,Cfa,30.2018,115.0326,China,2471700.0
445,Ouagadougou,BSh,12.3686,-1.5275,Burkina Faso,2453496.0
446,Daegu,Cwa,35.8667,128.6,South Korea,2461002.0
447,Fortaleza,As,-3.7275,-38.5275,Brazil,2452185.0
448,Yaoundé,Aw,3.8578,11.5181,Cameroon,2440462.0
449,Douala,Am,4.05,9.7,Cameroon,2446945.0
450,Jilin,Dwa,43.8519,126.5481,China,2396000.0
451,Dandong,Dwa,40.1167,124.3833,China,2444697.0
452,Lianshan,Dwa,40.7523,120.828,China,2426000.0
453,Yingkou,Dwa,40.6653,122.2297,China,2428534.0
454,Nāgpur,As,21.1539,79.0831,India,2405665.0
455,Omdurman,BWh,15.6167,32.48,Sudan,2395159.0
456,Bekasi,Af,-6.2333,107.0,Indonesia,2381053.0
457,Ghāziābād,Cwa,28.6667,77.4167,India,2375820.0
458,Yuxi,Cwb,24.3495,102.5432,China,2386000.0
459,Brisbane,Cfa,-27.4678,153.0281,Australia,2360241.0
460,Anshun,Cwa,26.2456,105.934,China,2353100.0
461,Depok,Af,-6.394,106.8225,Indonesia,2330333.0
462,Shangzhou,Cwb,33.868,109.9244,China,2341742.0
463,Huainan,Cfa,32.4831,117.0164,China,2333896.0
464,Kuaidamao,Dwb,41.7302,125.9471,China,2324439.0
465,Accra,Aw,5.6037,-0.187,Ghana,2291352.0
466,Fukuoka,Cfa,33.6,130.4167,Japan,2280000.0
467,Jincheng,Dwb,35.4906,112.8483,China,2279146.0
468,Jincheng,Dwb,39.5529,113.1933,China,105038.0
469,Vancouver,Csb,49.25,-123.1,Canada,2264823.0
470,Vancouver,Csb,45.6366,-122.5967,United States,184463.0
471,Tangerang,Af,-6.1783,106.6319,Indonesia,2237006.0
472,Sanmenxia,Cwa,34.7736,111.195,China,2234018.0
473,Laibin,Cfa,23.7333,109.2333,China,2233900.0
474,Queens,Dfb,40.7498,-73.7976,United States,2230722.0
475,Queens,Dfb,44.0333,-64.7167,Canada,10307.0
476,Qinbaling,Dwa,35.7278,107.64,China,2211191.0
477,Xining,Dwb,36.6239,101.7787,China,2208708.0
478,Ma’anshan,Cfa,31.6858,118.5101,China,2202899.0
479,Yan’an,Dwa,36.5952,109.4863,China,2187009.0
480,Baku,BSk,40.3667,49.8352,Azerbaijan,2181800.0
481,Gaoping,Dwa,30.7824,106.1281,China,2174000.0
482,Gaoping,Dwa,35.7911,112.9259,China,484862.0
483,Harare,Cwb,-17.8292,31.0522,Zimbabwe,2150000.0
484,Havana,Aw,23.1367,-82.3589,Cuba,2141652.0
485,Phnom Penh,Am,11.5696,104.921,Cambodia,2129371.0
486,Ningbo,Cfa,29.875,121.5492,China,2125500.0
487,Mogadishu,BSh,2.0408,45.3425,Somalia,2120000.0
488,Puning,Cwa,23.2993,116.1586,China,2118200.0
489,Medan,Af,3.6667,98.6667,Indonesia,2109330.0
490,Huaibei,Cwa,33.9562,116.789,China,2114276.0
491,Qingyang,Dwa,24.8141,118.5792,China,2111000.0
492,Qingyang,Dwa,36.1985,113.4313,China,34098.0
493,Riverside,Cfa,33.9381,-117.3948,United States,2107852.0
494,Riverside,Cfa,40.0358,-74.9564,United States,7857.0
495,Riverside,Cfa,39.7836,-84.1219,United States,25133.0
496,Riverside,Cfa,41.0319,-73.5827,United States,8604.0
497,Riverside,Cfa,41.831,-87.8169,United States,8563.0
498,Riverside,Cfa,39.4777,-76.2385,United States,6038.0
499,Baltimore,Cfa,39.3051,-76.6144,United States,2106068.0
500,Haiphong,Cwa,20.8,106.6667,Vietnam,2103500.0
501,Las Vegas,BSk,36.2333,-115.2654,United States,2104198.0
502,Las Vegas,BSk,35.6011,-105.2206,United States,14662.0
503,Chongzuo,Cwa,22.4167,107.3667,China,2099400.0
504,Rawalpindi,Cwa,33.6007,73.0679,Pakistan,2098231.0
505,Kumasi,Aw,6.6833,-1.6167,Ghana,2069350.0
506,Portland,Dfb,45.5372,-122.65,United States,2074775.0
507,Portland,Dfb,43.6773,-70.2715,United States,203969.0
508,Portland,Dfb,27.8911,-97.3284,United States,17268.0
509,Portland,Dfb,36.5883,-86.5194,United States,13030.0
510,Portland,Dfb,-38.3333,141.6,Australia,9712.0
511,Portland,Dfb,41.5988,-72.589,United States,9322.0
512,Portland,Dfb,40.4375,-84.9833,United States,6002.0
513,Portland,Dfb,42.8696,-84.899,United States,5104.0
514,Vadodara,BSh,22.3,73.2,India,2065771.0
515,Hezhou,Cfa,24.4164,111.5478,China,2072600.0
516,Pingliang,Dwb,35.5412,106.6819,China,2068033.0
517,San Antonio,Am,29.4658,-98.5253,United States,2049293.0
518,San Antonio,Am,-25.3797,-57.6097,Paraguay,69976.0
519,San Antonio,Am,-33.5809,-71.6132,Chile,86239.0
520,San Antonio,Am,15.3833,120.8,Philippines,83060.0
521,San Antonio,Am,14.9486,120.0864,Philippines,37450.0
522,San Antonio,Am,13.9,121.3,Philippines,35891.0
523,San Antonio,Am,12.414,124.279,Philippines,8882.0
524,San Antonio,Am,18.4468,-66.3002,Puerto Rico,7655.0
525,Perth,Dfb,-31.9522,115.8589,Australia,2039200.0
526,Perth,Dfb,56.397,-3.437,United Kingdom,47430.0
527,Perth,Dfb,44.9,-76.25,Canada,5930.0
528,Vishākhapatnam,Aw,17.7333,83.3167,India,2035922.0
529,Shengli,BSk,37.45,118.4667,China,2035338.0
530,Shengli,BSk,37.9842,106.1967,China,36937.0
531,Gujranwala,Cwa,32.15,74.1833,Pakistan,2027001.0
532,Fushun,Dwa,41.8708,123.8917,China,2024000.0
533,St. Louis,Dfb,38.6358,-90.2451,United States,2024074.0
534,St. Louis,Dfb,43.4082,-84.6118,United States,7265.0
535,Bamako,Aw,12.6458,-7.9922,Mali,2009109.0
536,Quito,Cfb,-0.22,-78.5125,Ecuador,2011388.0
537,Minsk,Dfb,53.9022,27.5618,Belarus,2009786.0
538,Indore,As,22.7206,75.8472,India,1994397.0
539,Yinchuan,BWk,38.4795,106.2254,China,1993088.0
540,Kananga,Aw,-5.8961,22.4167,Congo (Kinshasa),1971704.0
541,Peshawar,BSh,34.0,71.5,Pakistan,1970042.0
542,Sapporo,Dfb,43.0621,141.3544,Japan,1961690.0
543,Eşfahān,BSk,32.6447,51.6675,Iran,1961260.0
544,Caracas,Aw,10.5,-66.9333,Venezuela,1943901.0
545,Pingxiang,Cfa,27.6333,113.85,China,1933200.0
546,Aleppo,Csa,36.2,37.15,Syria,1916781.0
547,Tijuana,BSk,32.525,-117.0333,Mexico,1922523.0
548,Almaty,Dfa,43.25,76.9,Kazakhstan,1916822.0
549,Vienna,Dfb,48.2083,16.3725,Austria,1911191.0
550,Vienna,Dfb,38.8996,-77.2597,United States,16485.0
551,Vienna,Dfb,39.324,-81.5383,United States,10124.0
552,Vienna,Dfb,43.2344,-75.7777,United States,5381.0
553,Thāne,Aw,19.18,72.9633,India,1886941.0
554,Sacramento,Aw,38.5667,-121.4683,United States,1898019.0
555,Sacramento,Aw,-19.865,-47.44,Brazil,23896.0
556,Blantyre,Cwa,-15.7861,35.0058,Malawi,1895973.0
557,Tainan,Am,22.9833,120.1833,Taiwan,1883831.0
558,Zhuhai,Cwa,22.2769,113.5678,China,1891100.0
559,Bucharest,Cfa,44.4,26.0833,Romania,1883425.0
560,Curitiba,Cfb,-25.4297,-49.2719,Brazil,1879355.0
561,Multan,BWh,30.1978,71.4711,Pakistan,1871843.0
562,Xiping,Cwb,40.082,113.2981,China,1873000.0
563,Xiping,Cwb,25.6005,103.8166,China,652604.0
564,Ecatepec,Cwb,19.6097,-99.06,Mexico,1857188.0
565,Jixi,Dwb,45.2937,130.965,China,1862165.0
566,Saidu Sharif,Cfa,34.75,72.3572,Pakistan,1860310.0
567,Liaoyang,Dwa,41.2643,123.1772,China,1858768.0
568,Hamburg,Dfb,53.55,10.0,Germany,1852478.0
569,Hamburg,Dfb,42.7394,-78.8581,United States,58266.0
570,Meru,As,0.05,37.65,Kenya,1833000.0
571,Brazzaville,Aw,-4.2667,15.2833,Congo (Brazzaville),1827000.0
572,Orlando,Cfa,28.4772,-81.3369,United States,1822394.0
573,Fuxin,Dwa,42.0127,121.6486,China,1819339.0
574,Wuwei,BSk,37.9278,102.6329,China,1815059.0
575,Manaus,Af,-3.1,-60.0167,Brazil,1802014.0
576,Bhopāl,Csa,23.25,77.4167,India,1798218.0
577,San Jose,Af,37.3019,-121.8486,United States,1798103.0
578,San Jose,Af,12.3528,121.0676,Philippines,153267.0
579,San Jose,Af,15.7833,121.0,Philippines,150917.0
580,San Jose,Af,10.75,121.95,Philippines,65140.0
581,San Jose,Af,13.8772,121.105,Philippines,79868.0
582,San Jose,Af,13.7,123.5167,Philippines,43973.0
583,San Jose,Af,10.0083,125.5889,Philippines,26375.0
584,San Jose,Af,9.4167,123.2333,Philippines,21956.0
585,San Jose,Af,12.531,124.487,Philippines,17641.0
586,Warsaw,Dfa,52.23,21.0111,Poland,1790658.0
587,Warsaw,Dfa,41.2448,-85.8464,United States,33708.0
588,Lubumbashi,Cwa,-11.6697,27.4581,Congo (Kinshasa),1786397.0
589,Davao,Af,7.0667,125.6,Philippines,1776949.0
590,Haikou,Cwa,20.02,110.32,China,1776141.0
591,Damascus,Csb,33.5131,36.2919,Syria,1754000.0
592,Damascus,Csb,39.2737,-77.2006,United States,15250.0
593,Damascus,Csb,45.4233,-122.4437,United States,11161.0
594,Shuyangzha,Cwa,34.1299,118.7734,China,1770000.0
595,Brussels,Cfb,50.8353,4.3314,Belgium,1743000.0
596,Lusaka,Cwa,-15.4167,28.2833,Zambia,1742979.0
597,Hyderabad City,BWh,25.3792,68.3683,Pakistan,1732693.0
598,Budapest,Cfb,47.4983,19.0408,Hungary,1723836.0
599,Shuozhou,Dwb,39.3408,112.4292,China,1714857.0
600,Cleveland,Cfa,41.4767,-81.6804,United States,1710093.0
601,Cleveland,Cfa,35.1817,-84.8707,United States,73596.0
602,Cleveland,Cfa,33.744,-90.7285,United States,14114.0
603,Cleveland,Cfa,30.3374,-95.0931,United States,10690.0
604,Cleveland,Cfa,34.5971,-83.7621,United States,5372.0
605,Benxi,Dwa,41.292,123.761,China,1709538.0
606,Baiyin,BSk,36.5448,104.1766,China,1708751.0
607,Pittsburgh,Cfa,40.4396,-79.9762,United States,1703266.0
608,Patna,Cwa,25.61,85.1414,India,1684222.0
609,Mosul,BSh,36.3667,43.1167,Iraq,1694000.0
610,Caloocan City,Am,14.65,120.9667,Philippines,1661584.0
611,Austin,Dfb,30.3004,-97.7522,United States,1687311.0
612,Austin,Dfb,43.6718,-92.9783,United States,25626.0
613,Sanzhou,Cwa,30.82,108.4,China,1680000.0
614,Beihai,Cwa,21.4667,109.1,China,1680000.0
615,Mecca,BWh,21.4225,39.8261,Saudi Arabia,1675368.0
616,Mecca,BWh,33.5767,-116.0645,United States,6635.0
617,Heihe,Dwb,50.2458,127.4886,China,1673899.0
618,Jingdezhen,Cfa,29.2942,117.2036,China,1673200.0
619,Conakry,Am,9.538,-13.6773,Guinea,1667864.0
620,Kampala,Af,0.3136,32.5811,Uganda,1659600.0
621,Cincinnati,Cfa,39.1413,-84.5061,United States,1662691.0
622,Recife,Am,-8.0539,-34.8808,Brazil,1653461.0
623,Yushan,Cfa,31.3867,120.9766,China,1651200.0
624,Zhongli,Cfa,24.965,121.2168,Taiwan,1632616.0
625,Kansas City,Cfa,39.1239,-94.5541,United States,1636715.0
626,Kansas City,Cfa,39.1234,-94.7443,United States,152960.0
627,Manhattan,Dfa,40.7834,-73.9662,United States,1628706.0
628,Manhattan,Dfa,39.1886,-96.6046,United States,57046.0
629,Manhattan,Dfa,41.4274,-87.9805,United States,8240.0
630,Bilāspur,Cwa,22.15,82.0167,India,1625502.0
631,Bilāspur,Cwa,30.3044,77.3028,India,9620.0
632,Semarang,Am,-6.9667,110.4167,Indonesia,1621384.0
633,Ludhiāna,Cwa,30.9083,75.8486,India,1618879.0
634,Novosibirsk,Dfb,55.0333,82.9167,Russia,1602915.0
635,Chengtangcun,Cwa,35.0833,117.15,China,1603659.0
636,Āgra,BSh,27.1724,78.0131,India,1592000.0
637,Karaj,Csa,35.8327,50.9915,Iran,1592492.0
638,Wenzhou,Cfa,27.9991,120.6561,China,1588700.0
639,Indianapolis,Cfa,39.7771,-86.1458,United States,1588961.0
640,León de los Aldama,Cwb,21.1167,-101.6833,Mexico,1579803.0
641,Puebla,Cwb,19.0333,-98.1833,Mexico,1576259.0
642,Kalyān,Aw,19.2502,73.1602,India,1576614.0
643,Madurai,Aw,9.9197,78.1194,India,1561129.0
644,Mbuji-Mayi,Aw,-6.1209,23.5967,Congo (Kinshasa),1559073.0
645,Hebi,Cwa,35.7497,114.2887,China,1569208.0
646,Shīrāz,BSk,29.61,52.5425,Iran,1565572.0
647,Jamshedpur,Aw,22.8,86.1833,India,1558000.0
648,Columbus,Dfb,39.9862,-82.985,United States,1562009.0
649,Columbus,Dfb,32.51,-84.8771,United States,261445.0
650,Columbus,Dfb,39.2093,-85.9183,United States,59897.0
651,Columbus,Dfb,33.5088,-88.4096,United States,31084.0
652,Columbus,Dfb,41.4368,-97.3563,United States,23468.0
653,Columbus,Dfb,43.3354,-89.03,United States,6793.0
654,Tabrīz,BSk,38.0833,46.2833,Iran,1558693.0
655,Maracaibo,Aw,10.6333,-71.6333,Venezuela,1551539.0
656,Kawasaki,Cfa,35.5167,139.7,Japan,1539522.0
657,Kawasaki,Cfa,33.6,130.8153,Japan,15134.0
658,Aba,Am,5.1167,7.3667,Nigeria,1530000.0
659,Palembang,Af,-2.9833,104.7644,Indonesia,1535952.0
660,Zhangjiajie,Cfa,29.1255,110.4844,China,1537900.0
661,Kōbe,Cfa,34.6913,135.183,Japan,1513193.0
662,Charlotte,Dfb,35.208,-80.8304,United States,1512923.0
663,Charlotte,Dfb,42.5662,-84.8304,United States,12703.0
664,Changshu,Cfa,31.65,120.7333,China,1510100.0
665,Lianjiang,Cwa,21.6146,110.2794,China,1509400.0
666,Ximeicun,Cfa,24.9633,118.3811,China,1508000.0
667,Jianguang,Cfa,28.1958,115.7833,China,1507402.0
668,Yucheng,Cwa,29.9888,103.0007,China,1507258.0
669,Yucheng,Cwa,36.9329,116.6403,China,522878.0
670,Belém,As,-1.4558,-48.5039,Brazil,1499641.0
671,Belém,As,-6.7469,-35.5189,Brazil,17594.0
672,Guiping,Cfa,23.4,110.0833,China,1496904.0
673,Leizhou,Cwa,20.9147,110.0806,China,1494700.0
674,Gwangju,Cfa,35.1667,126.9167,South Korea,1490092.0
675,Munich,Cfb,48.1375,11.575,Germany,1488202.0
676,Nāsik,Aw,20.0,73.7833,India,1486053.0
677,Porto Alegre,Cfa,-30.0328,-51.23,Brazil,1484941.0
678,Valencia,Aw,10.1667,-68.0,Venezuela,1484430.0
679,Valencia,Aw,39.47,-0.3764,Spain,789744.0
680,Valencia,Aw,7.9,125.0833,Philippines,216546.0
681,Valencia,Aw,8.2592,-76.1469,Colombia,46897.0
682,Valencia,Aw,9.2833,123.25,Philippines,38733.0
683,Valencia,Aw,9.6097,124.208,Philippines,28392.0
684,Valencia,Aw,-0.9525,-79.3531,Ecuador,16983.0
685,Onitsha,Aw,6.1667,6.7833,Nigeria,1483000.0
686,Abu Dhabi,BWh,24.4511,54.3969,United Arab Emirates,1483000.0
687,Virginia Beach,Cfa,36.7335,-76.0435,United States,1478868.0
688,Daejeon,Dfa,36.351,127.385,South Korea,1475221.0
689,Zapopan,Cwa,20.7167,-103.4,Mexico,1476491.0
690,Yekaterinburg,Dfb,56.8356,60.6128,Russia,1468833.0
691,Huazhou,Cwa,32.6832,112.079,China,1468061.0
692,Huazhou,Cwa,21.654,110.6294,China,1302100.0
693,Kyōto,Cfa,35.0117,135.7683,Japan,1464890.0
694,Shuangyashan,Dwb,46.6388,131.1545,China,1462626.0
695,Pizhou,Cwa,34.3422,118.0097,China,1458038.0
696,El Kelaa des Srarhna,BSh,32.05,-7.4,Morocco,1450021.0
697,Kharkiv,Dfb,50.0,36.2292,Ukraine,1446107.0
698,Yangshe,Cfa,31.8775,120.5512,China,1432044.0
699,Guyuan,Dwb,36.008,106.2782,China,1426000.0
700,Khulna,Aw,22.8167,89.55,Bangladesh,1400689.0
701,Khulna,Aw,22.3465,88.9167,India,5958.0
702,Muscat,BWh,23.6139,58.5922,Oman,1421409.0
703,Bronx,Cfa,40.8501,-73.8662,United States,1418207.0
704,Gaozhou,Cwa,21.9135,110.8481,China,1414100.0
705,Chizhou,Cfa,30.6583,117.4849,China,1402518.0
706,Farīdābād,BSh,28.4353,77.3147,India,1394000.0
707,Ulaanbaatar,BSk,47.9214,106.9055,Mongolia,1396288.0
708,Goiânia,Aw,-16.6806,-49.2564,Brazil,1393575.0
709,Fuqing,Cfa,25.7232,119.3735,China,1390487.0
710,Belgrade,Dfb,44.8167,20.4667,Serbia,1378682.0
711,Belgrade,Dfb,45.7796,-111.1751,United States,17743.0
712,Pingdu,Cwa,36.7833,119.9556,China,1378900.0
713,Milan,Cfa,45.4669,9.19,Italy,1366180.0
714,Milan,Cfa,42.0816,-83.6853,United States,7778.0
715,Milan,Cfa,35.9126,-88.7554,United States,7612.0
716,Aurangābād,Cwa,19.88,75.32,India,1371330.0
717,Aurangābād,Cwa,24.7704,84.38,India,95929.0
718,Yutan,Cfa,28.3147,112.554,China,1368117.0
719,Milwaukee,Dfb,43.0642,-87.9673,United States,1365787.0
720,Huangshan,Cfa,29.7132,118.3151,China,1358980.0
721,Auckland,Cfb,-36.85,174.7833,New Zealand,1346091.0
722,Makassar,Am,-5.1331,119.4136,Indonesia,1338663.0
723,Prague,Cfb,50.0833,14.4167,Czechia,1335084.0
724,Rājkot,BSh,22.2969,70.7984,India,1335397.0
725,Liangshi,Cfa,27.2578,111.7351,China,1335900.0
726,Córdoba,Cfb,-31.4167,-64.1833,Argentina,1329604.0
727,Córdoba,Cfb,37.8845,-4.7796,Spain,322071.0
728,Córdoba,Cfb,18.8942,-96.9347,Mexico,218153.0
729,Córdoba,Cfb,0.8533,-77.5178,Colombia,14006.0
730,Córdoba,Cfb,9.5867,-74.8272,Colombia,12266.0
731,Córdoba,Cfb,4.3911,-75.6878,Colombia,5249.0
732,Guarulhos,Cfa,-23.4667,-46.5333,Brazil,1324781.0
733,Al Başrah,BWh,30.515,47.81,Iraq,1326564.0
734,Saitama,Cfa,35.8617,139.6453,Japan,1320571.0
735,Juárez,BWk,31.7386,-106.487,Mexico,1321004.0
736,Montevideo,Dfa,-34.8667,-56.1667,Uruguay,1319108.0
737,Montevideo,Dfa,44.9505,-95.7153,United States,5043.0
738,Xintai,Cwa,35.91,117.78,China,1315942.0
739,Wusong,Cfa,30.9333,117.7667,China,1311726.0
740,Meerut,Cwa,28.99,77.7,India,1305429.0
741,Yushu,Dwa,44.8249,126.5451,China,1304436.0
742,Rongcheng,Dwa,26.2312,104.0966,China,1302891.0
743,Rongcheng,Dwa,29.8239,112.9019,China,1162770.0
744,Rongcheng,Dwa,39.05,115.8657,China,69143.0
745,Yangquan,BSk,37.8576,113.5762,China,1300000.0
746,Yangquan,BSk,37.0749,111.5541,China,34570.0
747,Adelaide,Csb,-34.9275,138.6,Australia,1295714.0
748,Baishan,Dwb,41.9377,126.4179,China,1296127.0
749,Dayan,Cwb,26.8808,100.2208,China,1296000.0
750,Haicheng,Dwa,40.8523,122.7474,China,1293877.0
751,Jiangyin,Cfa,31.9087,120.2653,China,1285785.0
752,Huaiyin,Cwa,33.5819,119.028,China,1264000.0
753,Wuzhong,BSk,37.9874,106.1919,China,1284000.0
754,Cacuaco,BSh,-8.7833,13.3667,Angola,1279488.0
755,Barranquilla,Aw,10.9639,-74.7964,Colombia,1274250.0
756,Sofia,Cfb,42.6979,23.3217,Bulgaria,1277411.0
757,Soweto,Cwb,-26.2678,27.8586,South Africa,1271628.0
758,Jabalpur,Csa,23.1667,79.9333,India,1267564.0
759,Rucheng,Cfa,32.3852,120.5634,China,1267066.0
760,Nizhniy Novgorod,Dfb,56.3269,44.0075,Russia,1264075.0
761,Dhanbād,Cwa,23.7928,86.435,India,1246000.0
762,Comayagüela,Cwa,14.0833,-87.2167,Honduras,1250000.0
763,Laiwu,Cwa,36.1833,117.6667,China,1248636.0
764,Sharjah,BWh,25.3575,55.3919,United Arab Emirates,1247749.0
765,Jingling,Cfa,30.6667,113.1667,China,1247400.0
766,Kazan,Dfb,55.7908,49.1144,Russia,1243500.0
767,Suwon,Dwa,37.2858,127.01,South Korea,1234300.0
768,Yongcheng,Cwa,33.9317,116.4459,China,1240382.0
769,Calgary,Dfc,51.05,-114.0667,Canada,1239220.0
770,Cần Thơ,Aw,10.0333,105.7833,Vietnam,1237300.0
771,Abuja,Aw,9.0556,7.4914,Nigeria,1235880.0
772,Mandalay,Aw,21.9831,96.0844,Myanmar,1225546.0
773,Beidao,Dwb,34.602,105.918,China,1225000.0
774,Xiangshui,Cwb,26.5964,104.8314,China,1221000.0
775,Dadukou,Cwa,26.5849,101.7149,China,1214121.0
776,Vila Velha,Aw,3.2167,-51.2167,Brazil,1209091.0
777,Vila Velha,Aw,-20.3364,-40.2936,Brazil,472762.0
778,Chelyabinsk,Dfb,55.15,61.4,Russia,1202371.0
779,Mombasa,As,-4.05,39.6667,Kenya,1200000.0
780,Providence,Cfa,41.823,-71.4187,United States,1203230.0
781,Providence,Cfa,41.7033,-111.8121,United States,7780.0
782,Providence,Cfa,39.9092,-76.233,United States,7029.0
783,Vārānasi,Cwa,25.3189,83.0128,India,1198491.0
784,Qom,BSh,34.64,50.8764,Iran,1201158.0
785,Zhangye,BSk,38.9355,100.4553,China,1199515.0
786,Hiroshima,Cfa,34.4,132.45,Japan,1198021.0
787,Maiduguri,BSh,11.8333,13.15,Nigeria,1197497.0
788,Maputo,Aw,-25.9153,32.5764,Mozambique,1191613.0
789,Doha,BWh,25.3,51.5333,Qatar,1186023.0
790,Rosario,Cfa,-32.9575,-60.6394,Argentina,1193605.0
791,Rosario,Cfa,13.846,121.206,Philippines,128352.0
792,Rosario,Cfa,14.4167,120.85,Philippines,110807.0
793,Rosario,Cfa,16.2333,120.4833,Philippines,60278.0
794,Rosario,Cfa,8.3814,126.0015,Philippines,49610.0
795,Rosario,Cfa,12.5167,124.4167,Philippines,10949.0
796,Rosario,Cfa,-34.3139,-57.3525,Uruguay,9311.0
797,Pikine,BSh,14.75,-17.4,Senegal,1170791.0
798,Xinyu,Cfa,27.795,114.9242,China,1186700.0
799,Ahvāz,BSh,31.3203,48.6692,Iran,1184788.0
800,Jacksonville,Cfa,30.3322,-81.6749,United States,1181496.0
801,Jacksonville,Cfa,34.7288,-77.3941,United States,108856.0
802,Jacksonville,Cfa,34.8807,-92.1302,United States,28235.0
803,Jacksonville,Cfa,39.7292,-90.2318,United States,21685.0
804,Jacksonville,Cfa,31.9642,-95.2617,United States,14815.0
805,Jacksonville,Cfa,33.8088,-85.7545,United States,12544.0
806,Medina,Dfb,24.4667,39.6,Saudi Arabia,1180770.0
807,Medina,Dfb,8.9167,125.0167,Philippines,35612.0
808,Medina,Dfb,41.1358,-81.8694,United States,25956.0
809,Medina,Dfb,-16.2228,-41.4769,Brazil,20759.0
810,Medina,Dfb,4.5092,-73.3494,Colombia,10205.0
811,Medina,Dfb,43.2197,-78.3888,United States,7816.0
812,Medina,Dfb,45.0326,-93.5834,United States,6712.0
813,Srīnagar,Cfb,34.0911,74.8061,India,1180570.0
814,Omsk,Dfb,54.9667,73.3833,Russia,1178391.0
815,Liaoyuan,Dwa,42.8976,125.1381,China,1176239.0
816,Cilacap,Af,-7.7167,109.017,Indonesia,1174964.0
817,Yingtan,Cfa,28.2333,117.0,China,1175000.0
818,Bandar Lampung,Af,-5.4294,105.2625,Indonesia,1166761.0
819,Samara,Dfb,53.1833,50.1167,Russia,1169719.0
820,Guankou,Cwa,28.2363,113.6984,China,1168056.0
821,Guankou,Cwa,30.9933,103.624,China,671200.0
822,Ulsan,Cfa,35.55,129.3167,South Korea,1166033.0
823,Dingzhou,Dwa,38.5158,114.9845,China,1165182.0
824,Campinas,Cfa,-22.9009,-47.0573,Brazil,1164098.0
825,Lianyuan,Cfa,27.6961,111.6659,China,1162928.0
826,Dakar,BSh,14.7319,-17.4572,Senegal,1146053.0
827,Kaiyuan,Cwb,36.0656,113.8153,China,1160000.0
828,Kaiyuan,Cwb,42.538,124.0371,China,545624.0
829,Kaiyuan,Cwb,23.7147,103.2585,China,322693.0
830,Nay Pyi Taw,Aw,19.7475,96.115,Myanmar,1160242.0
831,Kigali,Aw,-1.9536,30.0606,Rwanda,1156663.0
832,Leiyang,Cfa,26.4179,112.8457,China,1151554.0
833,Benin City,Aw,6.3176,5.6145,Nigeria,1147188.0
834,Birmingham,Dfb,52.48,-1.9025,United Kingdom,1137100.0
835,Birmingham,Dfb,33.5277,-86.7987,United States,739573.0
836,Birmingham,Dfb,42.5447,-83.2166,United States,21389.0
837,Xiantao,Cfa,30.3833,113.4,China,1140100.0
838,Amritsar,Cwa,31.6269,74.877,India,1132383.0
839,Callao,BWh,-12.0611,-77.1333,Peru,1129854.0
840,Monterrey,BSh,25.6667,-100.3,Mexico,1135512.0
841,Alīgarh,BSh,27.88,78.08,India,1131160.0
842,Yingchuan,Cwa,34.1511,113.4733,China,1131896.0
843,Ciudad Nezahualcóyotl,Cwb,19.41,-99.03,Mexico,1109363.0
844,Tripoli,Csa,32.8752,13.1875,Libya,1126000.0
845,Tripoli,Csa,34.4333,35.8333,Lebanon,530000.0
846,Nampo,Dwa,38.7689,125.4505,North Korea,1127000.0
847,Rostov,Dfb,47.2333,39.7167,Russia,1125299.0
848,Rostov,Dfb,57.1833,39.4167,Russia,30943.0
849,Tegucigalpa,Cwa,14.0942,-87.2067,Honduras,1126534.0
850,Tbilisi,Cfa,41.7225,44.7925,Georgia,1118035.0
851,Guwāhāti,Cwa,26.1722,91.7458,India,1116267.0
852,Ufa,Dfb,54.7261,55.9475,Russia,1115560.0
853,Fès,Csa,34.0433,-5.0033,Morocco,1112072.0
854,Biên Hòa,Aw,10.9508,106.8221,Vietnam,1104000.0
855,N’Djamena,BSh,12.11,15.05,Chad,1092066.0
856,Ikare,Aw,7.5304,5.76,Nigeria,1099931.0
857,Salt Lake City,Dfb,40.7777,-111.9306,United States,1098526.0
858,Bhilai,Aw,21.2186,81.4314,India,1097000.0
859,Hāora,Aw,22.5736,88.3251,India,1077075.0
860,Tamale,Aw,9.4075,-0.8533,Ghana,1095808.0
861,Xibeijie,BWk,39.737,98.5049,China,1095947.0
862,Copenhagen,Cfb,55.6805,12.5615,Denmark,1085000.0
863,Nezahualcóyotl,Cwb,19.4,-98.9889,Mexico,1077208.0
864,Hanchuan,Cfa,30.652,113.8274,China,1092700.0
865,Gongzhuling,Dwa,43.5036,124.8088,China,1092692.0
866,Krasnoyarsk,Dfc,56.0089,92.8719,Russia,1083865.0
867,Cologne,Cfb,50.9422,6.9578,Germany,1083498.0
868,Cologne,Cfb,45.5849,9.9434,Italy,7534.0
869,Yicheng,Cfa,31.3697,119.8239,China,1082929.0
870,Yicheng,Cfa,31.7117,112.2551,China,512530.0
871,Zhufeng,Cwa,36.0,119.4167,China,1081960.0
872,São Gonçalo,Aw,-22.8269,-43.0539,Brazil,1077687.0
873,Nashville,Cfa,36.1715,-86.7843,United States,1081903.0
874,Nashville,Cfa,35.9692,-77.9555,United States,5554.0
875,Yerevan,Dfb,40.1814,44.5144,Armenia,1075800.0
876,Nur-Sultan,Dfb,51.1333,71.4333,Kazakhstan,1078362.0
877,Nouakchott,BWh,18.0858,-15.9785,Mauritania,1077169.0
878,Vereeniging,Cwa,-26.6736,27.9319,South Africa,1074000.0
879,Richmond,Dfa,37.5295,-77.4756,United States,1075798.0
880,Richmond,Dfa,49.1667,-123.1333,Canada,198309.0
881,Richmond,Dfa,37.9477,-122.339,United States,110567.0
882,Richmond,Dfa,-41.3333,173.1833,New Zealand,15000.0
883,Richmond,Dfa,39.8318,-84.8905,United States,42373.0
884,Richmond,Dfa,37.7306,-84.2926,United States,40972.0
885,Richmond,Dfa,51.456,-0.301,United Kingdom,21469.0
886,Richmond,Dfa,29.5825,-95.7602,United States,12578.0
887,Richmond,Dfa,41.4983,-71.6608,United States,7653.0
888,Richmond,Dfa,42.8094,-82.7518,United States,6262.0
889,Richmond,Dfa,-33.5983,150.7511,Australia,5482.0
890,Richmond,Dfa,39.2755,-93.9731,United States,5653.0
891,São Luís,Aw,-2.53,-44.3028,Brazil,1073893.0
892,Rānchi,Cwa,23.3556,85.3347,India,1073440.0
893,San Pedro Sula,Am,15.5,-88.0333,Honduras,1073824.0
894,Taixing,Cfa,32.1724,120.0142,China,1073921.0
895,Gwalior,Csa,26.215,78.1931,India,1069276.0
896,Memphis,Cfa,35.1046,-89.9773,United States,1066967.0
897,Memphis,Cfa,27.5435,-82.5607,United States,9647.0
898,Goyang,Dwa,37.6564,126.835,South Korea,1061929.0
899,Bezwāda,Aw,16.5167,80.6167,India,1048240.0
900,Edmonton,Dfb,53.5344,-113.4903,Canada,1062643.0
901,Bishkek,Dfb,42.8667,74.5667,Kyrgyzstan,1053900.0
902,Mizhou,Cwa,35.99,119.3801,China,1060000.0
903,Tunis,Csa,36.8008,10.18,Tunisia,1056247.0
904,Xishan,Cwa,27.6609,113.4946,China,1060000.0
905,Xishan,Cwa,23.0636,115.5467,China,25881.0
906,Ezhou,Cfa,30.3972,114.8842,China,1059700.0
907,Barquisimeto,Aw,10.0678,-69.3467,Venezuela,1059092.0
908,Sendai,Cfa,38.2683,140.8694,Japan,1058070.0
909,Hegang,Dwb,47.3139,130.2775,China,1058665.0
910,Kathmandu,Cwa,27.7167,85.3667,Nepal,975453.0
911,Mexicali,BWh,32.6633,-115.4678,Mexico,1049792.0
912,Voronezh,Dfb,51.6717,39.2106,Russia,1047549.0
913,Perm,Dfb,58.0139,56.2489,Russia,1048005.0
914,Changwon,Cwa,35.2281,128.6811,South Korea,1046054.0
915,Zhongwei,BWk,37.5139,105.1884,China,1046000.0
916,Shouguang,Cwa,36.8833,118.7333,China,1039205.0
917,Bogor,Af,-6.5917,106.8,Indonesia,1030720.0
918,Raleigh,Cfa,35.8325,-78.6435,United States,1038738.0
919,Cartagena,Csb,10.4236,-75.5253,Colombia,1036412.0
920,Cartagena,Csb,37.6,-0.9819,Spain,216365.0
921,Cartagena,Csb,-33.55,-71.6,Chile,22738.0
922,Chandīgarh,Cwa,30.7353,76.7911,India,1026459.0
923,Matola,BSh,-25.9667,32.4667,Mozambique,1032197.0
924,Jodhpur,BSh,26.2944,73.0278,India,1033918.0
925,Ogbomoso,Aw,8.1333,4.25,Nigeria,1032000.0
926,Shymkent,Dsa,42.3,69.6,Kazakhstan,1028673.0
927,Niamey,BSh,13.5086,2.1111,Niger,1026848.0
928,Managua,Aw,12.15,-86.2667,Nicaragua,1028808.0
929,Bagam,Af,1.0678,104.0167,Indonesia,1029808.0
930,Shubrā al Khaymah,BWh,30.1286,31.2422,Egypt,1025569.0
931,Maceió,Am,-9.6658,-35.735,Brazil,1025360.0
932,Monrovia,Csb,6.3106,-10.8047,Liberia,1021762.0
933,Monrovia,Csb,34.165,-117.9921,United States,36331.0
934,Wafangdian,Dwa,39.6271,121.9972,China,1024876.0
935,Zhongxiang,Cfa,31.169,112.5853,China,1022514.0
936,Odesa,Cfa,46.4775,30.7326,Ukraine,1017699.0
937,Port-au-Prince,Aw,18.5425,-72.3386,Haiti,987310.0
938,New Orleans,Cfa,30.0687,-89.9288,United States,1020886.0
939,Villahermosa,Af,17.9892,-92.9281,Mexico,1013484.0
940,Thủ Đức,Aw,10.7924,106.7518,Vietnam,1013795.0
941,Volgograd,Dfa,48.7086,44.5147,Russia,1015586.0
942,Mysore,Aw,12.3086,76.6531,India,1014227.0
943,Islamabad,Cwa,33.6989,73.0369,Pakistan,1014825.0
944,Xinyi,Cwa,22.3559,110.9369,China,1013900.0
945,Raipur,Aw,21.2379,81.6337,India,1010087.0
946,Raipur,Aw,22.8,86.95,India,6280.0
947,Arequipa,BWk,-16.3988,-71.5369,Peru,1008290.0
948,Port Harcourt,Am,4.75,7.0,Nigeria,1005904.0
949,Louisville,Cfa,38.1663,-85.6485,United States,1005654.0
950,Louisville,Cfa,39.9709,-105.1441,United States,20816.0
951,Louisville,Cfa,40.8371,-81.2643,United States,9360.0
952,Louisville,Cfa,33.1224,-89.0553,United States,5983.0
953,Zaoyang,Cwa,32.1287,112.7581,China,1004741.0
954,Shuizhai,Cwa,33.4433,114.8994,China,1003698.0
955,Xingyi,Cwb,25.091,104.9011,China,1004132.0
956,Kota,Aw,25.18,75.83,India,1001694.0
957,Kota,Aw,14.0333,80.05,India,16237.0
958,Quetta,BSk,30.192,67.007,Pakistan,1001205.0
959,Ottawa,Dfa,45.4247,-75.695,Canada,989567.0
960,Ottawa,Dfa,41.3532,-88.8306,United States,19839.0
961,Ottawa,Dfa,38.6,-95.2642,United States,12254.0
962,Ottawa,Dfa,41.0203,-84.0354,United States,5147.0
963,Stockholm,Dfb,59.3294,18.0686,Sweden,975819.0
964,Asmara,BSh,15.3333,38.9167,Eritrea,963000.0
965,Freetown,Cfa,8.4833,-13.2331,Sierra Leone,951000.0
966,Freetown,Cfa,41.7714,-71.0157,United States,9299.0
967,Vientiane,Aw,17.9667,102.6,Laos,948487.0
968,Jerusalem,Csa,31.7833,35.2167,Israel,919438.0
971,Panama City,Cfa,9.0,-79.5,Panama,880691.0
972,Panama City,Cfa,30.1995,-85.6004,United States,136133.0
973,Amsterdam,Dfb,52.3667,4.8833,Netherlands,862965.0
974,Amsterdam,Dfb,42.942,-74.1907,United States,21241.0
975,Lomé,Aw,6.1319,1.2228,Togo,837437.0
976,Libreville,Am,0.3901,9.4544,Gabon,797003.0
977,Zagreb,Cfb,45.8131,15.9772,Croatia,790017.0
978,Dushanbe,Dsb,38.5731,68.7864,Tajikistan,778500.0
979,Lilongwe,Cwa,-13.9833,33.7833,Malawi,781538.0
980,Cotonou,Aw,6.402,2.518,Benin,762000.0
981,Colombo,Cfb,6.9167,79.8333,Sri Lanka,752993.0
982,Colombo,Cfb,-25.2919,-49.2239,Brazil,212967.0
983,Pretoria,Cwa,-25.7464,28.1881,South Africa,741651.0
984,Winnipeg,Dfb,49.8844,-97.1464,Canada,705244.0
985,Quebec City,Dfb,46.8139,-71.2081,Canada,705103.0
986,Oslo,Dfb,59.9111,10.7528,Norway,693494.0
987,Athens,Cfa,37.9842,23.7281,Greece,664046.0
988,Athens,Cfa,33.9508,-83.3689,United States,141532.0
989,Athens,Cfa,34.7847,-86.951,United States,31187.0
990,Athens,Cfa,39.3269,-82.0988,United States,29122.0
991,Athens,Cfa,35.4573,-84.6045,United States,16651.0
992,Athens,Cfa,32.2041,-95.8321,United States,12753.0
993,Bujumbura,Aw,-3.3825,29.3611,Burundi,658859.0
994,Helsinki,Dfb,60.1756,24.9342,Finland,642045.0
995,Skopje,Cfb,41.9833,21.4333,Macedonia,640000.0
996,Chisinau,Dfb,47.0228,28.8353,Moldova,639000.0
997,Riga,Dfb,56.9475,24.1069,Latvia,614618.0
998,Riga,Dfb,43.0802,-77.8753,United States,5622.0
999,Kingston,Cfa,17.9714,-76.7931,Jamaica,580000.0
1000,Kingston,Cfa,41.2652,-75.8875,United States,12812.0
1001,Kingston,Cfa,41.9295,-73.9968,United States,54791.0
1002,Kingston,Cfa,41.9862,-70.7482,United States,13566.0
1003,Kingston,Cfa,-42.9769,147.3083,Australia,10409.0
1004,Kingston,Cfa,41.4738,-71.5236,United States,6513.0
1005,Kingston,Cfa,42.9156,-71.0665,United States,6260.0
1006,Kingston,Cfa,35.8713,-84.4959,United States,5994.0
1007,Rabat,Csa,34.0253,-6.8361,Morocco,572717.0
1008,Rabat,Csa,35.8817,14.3989,Malta,11497.0
1009,Vilnius,Dfb,54.6833,25.2833,Lithuania,574147.0
1010,San Salvador,Cfa,13.6989,-89.1914,El Salvador,567698.0
1011,San Salvador,Cfa,20.2833,-99.0153,Mexico,28637.0
1012,San Salvador,Cfa,-31.6167,-58.5,Argentina,12733.0
1013,Djibouti,BWh,11.595,43.1481,Djibouti,562000.0
1014,Dublin,Cfa,53.3497,-6.2603,Ireland,553165.0
1015,Dublin,Cfa,37.7161,-121.8963,United States,64826.0
1016,Dublin,Cfa,40.1112,-83.1454,United States,49037.0
1017,Dublin,Cfa,32.5359,-82.928,United States,20583.0
1018,The Hague,Cfb,52.08,4.31,Netherlands,537833.0
1019,Asunción,Cfa,-25.3,-57.6333,Paraguay,524190.0
1020,Lisbon,Dfb,38.708,-9.139,Portugal,506654.0
1021,Lisbon,Dfb,44.0265,-70.09,United States,8906.0
1022,Lisbon,Dfb,40.7752,-80.7628,United States,5372.0
1023,Bratislava,Cfb,48.1447,17.1128,Slovakia,475503.0
1024,Kitchener,Dfb,43.4186,-80.4728,Canada,470015.0
1025,Tallinn,Dfb,59.4372,24.745,Estonia,438341.0
1026,Beirut,Csa,33.8869,35.5131,Lebanon,361366.0
1027,Cape Town,Csb,-33.925,18.425,South Africa,433688.0
1028,Tirana,Csa,41.33,19.82,Albania,418495.0
1029,Wellington,Cfa,-41.2889,174.7772,New Zealand,418500.0
1030,Wellington,Cfa,26.6461,-80.2699,United States,65398.0
1031,Wellington,Cfa,40.7,-105.0054,United States,10437.0
1032,Wellington,Cfa,37.2622,-97.4282,United States,7662.0
1033,Dodoma,BSh,-6.1835,35.746,Tanzania,410956.0
1034,Halifax,Cfa,44.6475,-63.5906,Canada,403131.0
1035,Halifax,Cfa,53.725,-1.863,United Kingdom,88134.0
1036,Halifax,Cfa,41.9914,-70.8633,United States,7842.0
1037,Bissau,Aw,11.8592,-15.5956,Guinea-Bissau,395954.0
1038,Canberra,Cfb,-35.2931,149.1269,Australia,381488.0
1039,Juba,Aw,4.85,31.6,South Sudan,372410.0
1040,Yamoussoukro,Aw,6.8161,-5.2742,Côte d'Ivoire,355573.0
1041,Victoria,Dfb,48.4283,-123.3647,Canada,335696.0
1042,Victoria,Dfb,-4.6236,55.4544,Seychelles,26450.0
1043,Victoria,Dfb,36.05,14.25,Malta,6901.0
1044,Victoria,Dfb,28.8285,-96.985,United States,68078.0
1045,Victoria,Dfb,15.5781,120.6819,Philippines,63715.0
1046,Victoria,Dfb,14.225,121.325,Philippines,43408.0
1047,Victoria,Dfb,-38.2167,-72.3333,Chile,34890.0
1048,Victoria,Dfb,-32.6167,-60.1667,Argentina,30623.0
1049,Victoria,Dfb,12.45,124.3167,Philippines,15361.0
1050,Victoria,Dfb,44.8634,-93.6586,United States,10206.0
1051,Victoria,Dfb,45.6466,24.7059,Romania,7386.0
1052,Maseru,Cwb,-29.31,27.48,Lesotho,330790.0
1053,Nicosia,Csa,35.1725,33.365,Cyprus,330000.0
1054,Nicosia,Csa,37.75,14.4,Italy,13588.0
1055,Windhoek,BSh,-22.57,17.0836,Namibia,322500.0
1056,Port Moresby,Af,-9.4789,147.1494,Papua New Guinea,317374.0
1057,Porto-Novo,Aw,6.4833,2.6167,Benin,300000.0
1058,Sucre,BSk,-19.0431,-65.2592,Bolivia,300000.0
1059,San José,Csb,9.9333,-84.0833,Costa Rica,288054.0
1060,San José,Csb,-34.3333,-56.7167,Uruguay,36747.0
1061,San José,Csb,1.6967,-78.2453,Colombia,25433.0
1062,San José,Csb,1.4739,-77.0808,Colombia,23279.0
1063,Ljubljana,Cfb,46.05,14.5167,Slovenia,286745.0
1064,Sarajevo,Cfb,43.8563,18.4132,Bosnia And Herzegovina,275524.0
1065,Nassau,Aw,25.0667,-77.3333,The Bahamas,274400.0
1066,Bloemfontein,BSk,-29.1,26.2167,South Africa,256185.0
1067,Fort-de-France,Af,14.6104,-61.08,Martinique,253995.0
1068,New Delhi,Cwa,28.6139,77.209,India,249998.0
1069,Gaborone,BSh,-24.6569,25.9086,Botswana,231626.0
1070,Paramaribo,Af,5.8667,-55.1667,Suriname,223757.0
1071,Dili,Aw,-8.5536,125.5783,Timor-Leste,222323.0
1072,Male,Am,4.175,73.5083,Maldives,133019.0
1073,Georgetown,Dfb,6.7833,-58.1667,Guyana,200500.0
1074,Georgetown,Dfb,30.6668,-97.6953,United States,79604.0
1075,Georgetown,Dfb,38.2249,-84.5482,United States,36994.0
1076,Georgetown,Dfb,31.9849,-81.226,United States,12951.0
1077,Georgetown,Dfb,33.3595,-79.2958,United States,11754.0
1078,Georgetown,Dfb,38.6894,-75.3872,United States,10638.0
1079,Georgetown,Dfb,42.724,-70.9821,United States,8695.0
1080,Gibraltar,Csa,36.1324,-5.3781,Gibraltar,187083.0
1081,Saint-Denis,Cfb,-20.8789,55.4481,Reunion,190047.0
1082,Saint-Denis,Cfb,48.9356,2.3539,France,112091.0
1083,Malabo,Am,3.7521,8.7737,Equatorial Guinea,187302.0
1084,Podgorica,Cfa,42.4397,19.2661,Montenegro,174515.0
1085,Manama,BWh,26.225,50.5775,Bahrain,157474.0
1086,Port Louis,As,-20.1667,57.5,Mauritius,149194.0
1087,Willemstad,Aw,12.108,-68.935,Curaçao,150000.0
1088,Bern,Cfa,46.948,7.4474,Switzerland,133798.0
1089,Bern,Cfa,40.4005,-75.9933,United States,6921.0
1090,Papeete,Af,-17.5334,-149.5667,French Polynesia,131695.0
1091,Luxembourg,Cfb,49.6106,6.1328,Luxembourg,128512.0
1092,Reykjavík,Cfc,64.1475,-21.935,Iceland,128793.0
1093,Praia,BWh,14.9177,-23.5092,Cabo Verde,127832.0
1094,Sri Jayewardenepura Kotte,Af,6.9,79.9164,Sri Lanka,115826.0
1095,Bridgetown,Cfa,13.0975,-59.6167,Barbados,110000.0
1096,Bridgetown,Cfa,39.1551,-84.6359,United States,14352.0
1097,Moroni,Af,-11.7036,43.2536,Comoros,111329.0
1098,Thimphu,Cwb,27.4833,89.6333,Bhutan,104000.0
1099,Mbabane,Cwb,-26.3208,31.1617,Swaziland,94874.0
1100,Nouméa,Cfa,-22.2625,166.4443,New Caledonia,93060.0
1101,Honiara,Af,-9.4333,159.95,Solomon Islands,84520.0
1102,Suva,Af,-18.1333,178.4333,Fiji,88271.0
1103,Ankara,Csb,39.93,32.85,Turkey,77168.0
1104,Castries,Csa,14.0167,-60.9833,Saint Lucia,70000.0
1105,Castries,Csa,43.6789,3.9814,France,6250.0
1106,Cayenne,Af,4.933,-52.33,French Guiana,61550.0
1107,São Tomé,Cfa,0.3333,6.7333,Sao Tome And Principe,56166.0
1108,São Tomé,Cfa,-5.9728,-36.075,Brazil,10827.0
1109,São Tomé,Cfa,-23.5378,-52.5908,Brazil,5349.0
1110,Port-Vila,Af,-17.7333,168.3167,Vanuatu,51437.0
1111,Hamilton,Dfb,32.2942,-64.7839,Bermuda,52320.0
1112,Hamilton,Dfb,43.2567,-79.8692,Canada,693645.0
1113,Hamilton,Dfb,-37.7833,175.2833,New Zealand,176500.0
1114,Hamilton,Dfb,55.777,-4.039,United Kingdom,53188.0
1115,Hamilton,Dfb,40.2046,-74.6765,United States,87424.0
1116,Hamilton,Dfb,39.3938,-84.5653,United States,62082.0
1117,Hamilton,Dfb,39.9432,-77.7327,United States,11097.0
1118,Hamilton,Dfb,-37.7333,142.0167,Australia,9974.0
1119,Hamilton,Dfb,40.9333,-75.2844,United States,8866.0
1120,Hamilton,Dfb,42.6267,-70.858,United States,8031.0
1121,Hamilton,Dfb,46.2527,-114.1598,United States,6964.0
1122,Hamilton,Dfb,34.1346,-87.9755,United States,6606.0
1123,Hamilton,Dfb,42.7897,-75.494,United States,6472.0
1124,Bandar Seri Begawan,Af,4.9167,114.9167,Brunei,50000.0
1125,Monaco,Csb,43.7396,7.4069,Monaco,36371.0
1126,Gitega,Cwb,-3.4283,29.925,Burundi,41944.0
1127,Gitega,Cwb,-3.426,29.8436,Burundi,23167.0
1128,Port of Spain,Aw,10.6667,-61.5167,Trinidad And Tobago,37074.0
1131,Oranjestad,Aw,12.5186,-70.0358,Aruba,34980.0
1132,Oranjestad,Aw,17.4833,-62.9833,Netherlands,1021.0
1133,Saint Helier,Cfb,49.1858,-2.11,Jersey,33522.0
1134,Banjul,Aw,13.4531,-16.5775,The Gambia,31356.0
1135,Mamoudzou,Aw,-12.7871,45.275,Mayotte,32057.0
1136,Majuro,Af,7.0918,171.3802,Marshall Islands,30000.0
1137,Douglas,Dfb,54.15,-4.4819,Isle Of Man,27938.0
1138,Douglas,Dfb,31.3602,-109.5394,United States,16467.0
1139,Douglas,Dfb,31.5065,-82.8543,United States,14283.0
1140,Douglas,Dfb,42.0525,-71.7516,United States,8859.0
1141,Douglas,Dfb,42.7541,-105.3968,United States,6421.0
1142,Douglas,Dfb,46.2819,-66.942,Canada,6154.0
1143,George Town,Af,19.2866,-81.3744,Cayman Islands,27704.0
1144,George Town,Af,5.4145,100.3292,Malaysia,708127.0
1145,Kingstown,Af,13.1667,-61.2333,Saint Vincent And The Grenadines,25000.0
1146,Andorra la Vella,Cfb,42.5,1.5,Andorra,22615.0
1147,Saint John’s,Af,17.1211,-61.8447,Antigua And Barbuda,21926.0
1148,Nuku‘alofa,Af,-21.1347,-175.2083,Tonga,23221.0
1149,Ashgabat,BSk,37.95,58.3833,Turkmenistan,19426.0
1150,Nuuk,ET,64.175,-51.7333,Greenland,18326.0
1151,Belmopan,Am,17.25,-88.7675,Belize,17222.0
1152,Roseau,Af,15.3,-61.3833,Dominica,16582.0
1153,Basseterre,Aw,17.2983,-62.7342,Saint Kitts And Nevis,13220.0
1154,Tórshavn,Cfc,62.0,-6.7833,Faroe Islands,13326.0
1156,Valletta,Csa,35.8978,14.5125,Malta,6444.0
1158,Palikir,Af,6.9178,158.185,Federated States of Micronesia,6227.0
1160,Vaduz,Cfb,47.1397,9.5219,Liechtenstein,5668.0
1161,Lobamba,Cwb,-26.4465,31.2064,Swaziland,5800.0
1162,Avarua,Af,-21.207,-159.771,Cook Islands,5445.0
1163,Saint George’s,Aw,12.0444,-61.7417,Grenada,4315.0
1164,San Marino,Csb,43.932,12.4484,San Marino,4040.0
1165,San Marino,Csb,34.1224,-118.1132,United States,13048.0
1166,Capitol Hill,Af,15.2137,145.7546,Northern Mariana Islands,2500.0
1167,Stanley,Dfb,-51.7,-57.85,Falkland Islands (Islas Malvinas),2213.0
1168,Stanley,Dfb,53.7145,-1.476,United Kingdom,15314.0
1169,Stanley,Dfb,49.1331,-98.0656,Canada,9038.0
1170,Alofi,Af,-19.056,-169.921,Niue,1611.0
1171,Hagåtña,Af,13.4745,144.7504,Guam,1051.0
1172,Bareilly,Cwa,28.364,79.415,India,1000000.0
1173,Quảng Hà,Am,16.06,108.25,Vietnam,1000000.0
1174,Xingcheng,Dwa,24.1681,115.6669,China,993000.0
1175,Xingcheng,Dwa,40.6189,120.7205,China,546176.0
1176,Xingcheng,Dwa,40.1399,118.303,China,52814.0
1177,Dongtai,Cfa,32.8534,120.3037,China,990306.0
1178,Al Manşūrah,BWh,31.05,31.3833,Egypt,960423.0
1179,Yingcheng,Cfa,24.1878,113.4042,China,986400.0
1180,Chiba,Cfa,35.6073,140.1064,Japan,981738.0
1181,Pekanbaru,Af,0.5333,101.45,Indonesia,983356.0
1182,Luocheng,Cwa,22.7645,111.5745,China,984100.0
1183,Luocheng,Cwa,30.9793,104.28,China,591115.0
1184,Dnipro,Dfa,48.4675,35.04,Ukraine,980948.0
1185,Danyang,Cfa,31.9948,119.575,China,980662.0
1186,Natal,As,-6.9838,-60.2699,Brazil,980588.0
1187,Natal,As,-5.795,-35.2089,Brazil,877662.0
1188,Nada,Aw,19.5,109.5833,China,977700.0
1189,Zamboanga City,Aw,6.9167,122.0833,Philippines,977234.0
1190,Kirkuk,BSh,35.4667,44.4,Iraq,975000.0
1191,Naples,Aw,40.8333,14.25,Italy,966144.0
1192,Naples,Aw,26.1504,-81.7936,United States,22088.0
1193,Wuchuan,Cwa,21.4283,110.7749,China,972400.0
1194,Huilong,Cfa,31.8131,121.6574,China,972525.0
1195,Oklahoma City,Cfa,35.4676,-97.5136,United States,972943.0
1196,Morelia,Cwb,19.7683,-101.1894,Mexico,962555.0
1197,Cebu City,Am,10.293,123.902,Philippines,964169.0
1198,Shaoxing,Cfa,30.0,120.5833,China,961200.0
1199,Coimbatore,Aw,11.0,76.9667,India,959823.0
1200,Santo Domingo Este,Aw,18.4855,-69.8734,Dominican Republic,948855.0
1201,Setagaya,Cfa,35.6464,139.6533,Japan,940509.0
1202,Sŏngnam,Dwa,37.4386,127.1378,South Korea,948757.0
1203,Taishan,Cwa,22.2486,112.785,China,953900.0
1204,Fangchenggang,Cwa,21.6,108.3,China,953300.0
1205,Solāpur,BSh,17.6715,75.9104,India,951558.0
1206,Tangier,Csa,35.7767,-5.8039,Morocco,947952.0
1207,Anqiu,Cwa,36.3619,119.1072,China,947723.0
1208,Feicheng,Cwa,36.186,116.772,China,946627.0
1209,Kermānshāh,Csa,34.3167,47.0686,Iran,945651.0
1210,Kitakyūshū,Cfa,33.8833,130.8833,Japan,935084.0
1211,Khartoum North,BWh,15.6333,32.6333,Sudan,936349.0
1212,Kisangani,Af,0.5153,25.1911,Congo (Kinshasa),935977.0
1213,Aguascalientes,BSh,21.876,-102.296,Mexico,934424.0
1214,Marrakech,BSh,31.6295,-7.9811,Morocco,928850.0
1215,Donetsk,Dfa,48.0089,37.8042,Ukraine,929063.0
1216,Donetsk,Dfa,48.3369,39.9449,Russia,47770.0
1217,Trujillo,Csa,-8.1119,-79.0289,Peru,919899.0
1218,Trujillo,Csa,9.3658,-70.4369,Venezuela,38110.0
1219,Trujillo,Csa,15.9167,-86.0,Honduras,30000.0
1220,Trujillo,Csa,39.4653,-5.8789,Spain,8821.0
1221,Taihe,Cwa,30.8706,105.3784,China,924531.0
1222,Bridgeport,Dfb,41.1918,-73.1953,United States,924449.0
1223,Bridgeport,Dfb,39.3036,-80.2477,United States,8842.0
1224,Bridgeport,Dfb,33.21,-97.7708,United States,6653.0
1225,Bridgeport,Dfb,43.3706,-83.8828,United States,6425.0
1226,Trichinopoly,Aw,10.8269,78.6928,India,916857.0
1227,Xin’an,Cwa,34.3662,118.3369,China,920628.0
1228,Taihecun,Dwb,45.768,131.0063,China,920471.0
1229,Naucalpan de Juárez,Cwb,19.4753,-99.2378,Mexico,913681.0
1230,Owerri,Am,5.4833,7.0333,Nigeria,908109.0
1231,Padang,Af,-0.9556,100.3606,Indonesia,914970.0
1232,Qingzhou,Cwa,36.6967,118.4797,China,914047.0
1233,Buffalo,Dfb,42.9016,-78.8487,United States,914341.0
1234,Buffalo,Dfb,45.1796,-93.8644,United States,16993.0
1235,Buffalo,Dfb,40.706,-79.7387,United States,7308.0
1236,Lichuan,Cfa,30.2965,108.9378,China,913700.0
1237,Daye,Cfa,30.1003,114.9699,China,909724.0
1238,Fort Worth,Cfa,32.7811,-97.3473,United States,909585.0
1239,Hengzhou,Cfa,22.6896,109.2674,China,908400.0
1240,Campo Grande,Aw,-20.4686,-54.6222,Brazil,906092.0
1241,Zhuanghe,Dwa,39.6896,122.9664,China,905852.0
1242,Hartford,Cfb,41.7661,-72.6834,United States,905152.0
1243,Hartford,Cfb,43.3223,-88.3782,United States,15445.0
1244,Hartford,Cfb,43.6644,-72.3866,United States,9643.0
1245,Hartford,Cfb,53.245,-2.549,United Kingdom,5515.0
1246,Bobo-Dioulasso,Aw,11.1833,-4.2833,Burkina Faso,903887.0
1247,Ad Dammām,BWh,26.4333,50.1,Saudi Arabia,903312.0
1248,Lhasa,Dwc,29.6458,91.1408,China,902500.0
1249,Jiaozhou,Cwa,36.2481,119.9625,China,900500.0
1250,Taguig City,Af,14.5167,121.05,Philippines,886722.0
1251,Mérida,Csa,20.97,-89.62,Mexico,892363.0
1252,Mérida,Csa,8.5833,-71.1333,Venezuela,300000.0
1253,Mérida,Csa,38.9,-6.3333,Spain,59424.0
1254,Yangchun,Cwa,22.1717,111.7846,China,891800.0
1255,Bucheon,Cwa,37.4989,126.7831,South Korea,867678.0
1256,Dengtalu,Cwa,36.0819,114.3481,China,887000.0
1257,Antipolo,Af,14.5842,121.1763,Philippines,887399.0
1258,Hubli,Aw,15.3619,75.1231,India,890000.0
1259,Abeokuta,Aw,7.15,3.35,Nigeria,888924.0
1260,Cancún,Aw,21.1606,-86.8475,Mexico,888797.0
1261,Tucson,BSh,32.1545,-110.8782,United States,888486.0
1262,Krasnodar,Cfa,45.0333,38.9833,Russia,881476.0
1263,Chihuahua,BSk,28.6353,-106.0889,Mexico,878062.0
1264,Klang,Af,3.0333,101.45,Malaysia,878000.0
1265,Turin,Cfb,45.0667,7.7,Italy,870952.0
1266,Ar Ramādī,BWh,33.4258,43.2992,Iraq,874543.0
1267,Laiyang,Dwa,36.9758,120.7136,China,874127.0
1268,Sale,Cfb,34.05,-6.8167,Morocco,850403.0
1269,Sale,Cfb,53.424,-2.322,United Kingdom,134022.0
1270,Sale,Cfb,-38.1,147.0667,Australia,13673.0
1271,Jalandhar,Cwa,31.3256,75.5792,India,873725.0
1272,Kaifeng Chengguanzhen,Cwa,34.8519,114.3481,China,872000.0
1273,Ikeja,Aw,6.6186,3.3426,Nigeria,861300.0
1274,Malang,Aw,-7.98,112.62,Indonesia,866118.0
1275,Marseille,Csa,43.2964,5.37,France,868277.0
1276,Saltillo,Cfa,25.4333,-101.0,Mexico,864431.0
1277,Saltillo,Cfa,34.3789,-88.6939,United States,5062.0
1278,Gaomi,Cwa,36.3833,119.75,China,868715.0
1279,Ipoh,Af,4.6,101.07,Malaysia,866772.0
1280,Hai’an,Cfa,32.532,120.4604,China,866337.0
1281,Oran,BSk,35.6969,-0.6331,Algeria,852000.0
1282,Hermosillo,BWh,29.0989,-110.9542,Mexico,855563.0
1283,Weichanglu,Cwa,37.1792,119.9333,China,859424.0
1284,Shache,BWk,38.4261,77.25,China,851374.0
1285,Leping,Dwa,28.9632,117.1203,China,852800.0
1286,Leping,Dwa,37.613,113.6995,China,88559.0
1287,Hailun,Dwb,47.4585,126.9632,China,850000.0
1288,Macheng,Cfa,31.1817,115.0189,China,849090.0
1289,Akure,Aw,7.25,5.195,Nigeria,847903.0
1290,Ilorin,Aw,8.5,4.55,Nigeria,847582.0
1291,Teresina,Aw,-5.0949,-42.8042,Brazil,847430.0
1292,Yuci,Dwa,37.6823,112.7281,China,840000.0
1293,Omaha,Dfa,41.2627,-96.0522,United States,847819.0
1294,Saratov,Dfa,51.5333,46.0,Russia,845300.0
1295,Erbil,Csa,36.1911,44.0094,Iraq,846000.0
1296,Iguaçu,Aw,-22.74,-43.47,Brazil,844583.0
1297,El Paso,Csb,31.8479,-106.4309,United States,843386.0
1298,El Paso,Csb,9.6622,-73.7519,Colombia,23534.0
1299,El Paso,Csb,28.6513,-17.8806,Spain,7745.0
1300,Pasig City,Af,14.575,121.0833,Philippines,803159.0
1301,Denpasar,Aw,-8.6667,115.2167,Indonesia,834881.0
1302,Dehui,Dwa,44.5323,125.6965,China,839786.0
1303,Bhubaneshwar,Aw,20.2644,85.8281,India,837737.0
1304,Tongchuan,Cwa,34.9057,108.9422,China,834437.0
1305,Cheongju,Dwa,36.6372,127.4897,South Korea,833276.0
1306,Warri,Am,5.5167,5.75,Nigeria,830106.0
1307,Pointe-Noire,Aw,-4.7889,11.8653,Congo (Brazzaville),829134.0
1308,Sakai,Cfa,34.5667,135.4833,Japan,823523.0
1309,Sakai,Cfa,36.1669,136.2317,Japan,87945.0
1310,Sakai,Cfa,36.1086,139.795,Japan,24035.0
1311,Rongjiawan,Cfa,29.1409,113.1087,China,826000.0
1312,Butterworth,Af,5.3992,100.3639,Malaysia,821652.0
1313,Renqiu,Cwa,38.7094,116.1008,China,822455.0
1314,Honolulu,As,21.3294,-157.846,United States,820987.0
1315,Xindi,Cfa,29.8182,113.4653,China,819446.0
1316,Wu’an,Cwa,36.6941,114.1847,China,819000.0
1317,São Bernardo do Campo,Cfa,-23.6939,-46.565,Brazil,816925.0
1318,Gaoyou,Cfa,32.7847,119.4432,China,811800.0
1319,Culiacán,As,24.8069,-107.3939,Mexico,808416.0
1320,Hejian,Cwa,38.4451,116.0897,China,810306.0
1321,Puxi,Cwa,35.2125,114.735,China,809535.0
1322,Zijinglu,Cwa,34.7513,112.9854,China,807857.0
1323,João Pessoa,Am,-7.12,-34.88,Brazil,801718.0
1324,McAllen,BSh,26.2273,-98.2471,United States,804114.0
1325,Querétaro,BSk,20.5875,-100.3928,Mexico,801940.0
1326,Abaeté,Aw,-19.1583,-45.4522,Brazil,800000.0
1327,Palermo,Csa,2.8883,-75.4339,Colombia,800000.0
1328,Palermo,Csa,38.1111,13.3517,Italy,668405.0
1329,Palermo,Csa,39.4313,-121.5225,United States,5395.0
1330,Qingping,Cwa,34.538,113.3796,China,797200.0
1331,Niigata,Cfa,37.9161,139.0364,Japan,790646.0
1332,Leeds,Cfa,53.7997,-1.5492,United Kingdom,789194.0
1333,Leeds,Cfa,33.5429,-86.5636,United States,12040.0
1334,Morādābād,Cwa,28.8437,78.7548,India,787000.0
1335,Hamamatsu,Cfa,34.7167,137.7333,Japan,788211.0
1336,Xiangxiang,Cfa,27.7389,112.5223,China,787216.0
1337,Chaohucun,Cfa,31.6783,117.7353,China,782000.0
1338,Homs,Csa,34.7333,36.7167,Syria,775404.0
1339,Lubango,BSh,-14.9167,13.5,Angola,776249.0
1340,San Luis Potosí,BSk,22.1511,-100.9761,Mexico,772828.0
1341,Cencheng,Cwa,22.9297,111.0186,China,772113.0
1342,Dali,Cwa,25.7003,100.1564,China,771128.0
1343,Dali,Cwa,34.7953,109.9378,China,109696.0
1344,Hamhŭng,Dfa,39.9167,127.5333,North Korea,768551.0
1345,Kraków,Cfb,50.0614,19.9372,Poland,766739.0
1346,Hempstead,Cfa,40.6629,-73.6089,United States,767417.0
1347,Hempstead,Cfa,30.1004,-96.0779,United States,8355.0
1348,Frankfurt,Cfb,50.1136,8.6797,Germany,764104.0
1349,Al ‘Ayn,BWh,24.2075,55.7447,United Arab Emirates,766936.0
1350,Songzi,Cfa,30.1772,111.7732,China,765911.0
1351,Laixi,Dwa,36.8667,120.5333,China,762900.0
1352,Bahawalpur,BWh,29.3956,71.6722,Pakistan,762111.0
1353,Zhongba,Cwa,31.7761,104.7406,China,762140.0
1354,Kaduna,Aw,10.5105,7.4165,Nigeria,760084.0
1355,Qingnian,Cwa,36.8494,115.7061,China,760781.0
1356,Albuquerque,BSk,35.1053,-106.6464,United States,761195.0
1357,Xinhualu,Cwa,34.3962,113.7249,China,758079.0
1358,Nerima,Cfa,35.75,139.6167,Japan,742463.0
1359,Guangshui,Cfa,31.6189,113.8229,China,755910.0
1360,Tlajomulco de Zúñiga,Cwa,20.4736,-103.4431,Mexico,727750.0
1361,Samarinda,Af,-0.5022,117.1536,Indonesia,753370.0
1362,Pietermaritzburg,Cfb,-29.6009,30.3796,South Africa,750845.0
1363,Changhua,Cfa,24.0667,120.5333,Taiwan,750000.0
1364,Kolhāpur,Aw,16.7,74.2333,India,750000.0
1365,Sizhan,BWk,39.0099,106.3694,China,751389.0
1366,Ciudad Guayana,Aw,8.3596,-62.6517,Venezuela,751331.0
1367,Cúcuta,Cfb,7.9075,-72.5047,Colombia,750000.0
1368,Licheng,Cfa,31.4174,119.4786,China,749522.0
1369,Licheng,Cfa,24.4935,110.3902,China,352472.0
1370,Ōta-ku,Cfa,35.5614,139.7161,Japan,737187.0
1371,Thiruvananthapuram,Aw,8.5,76.8997,India,743691.0
1372,Tyumen,Dfb,57.15,65.5333,Russia,744554.0
1373,Nampula,Aw,-15.1167,39.2667,Mozambique,743000.0
1374,Zaporizhzhia,Dfa,47.8378,35.1383,Ukraine,741717.0
1375,Chengguan,Cwa,35.5256,113.6976,China,740435.0
1376,Kumamoto,Cfa,32.8031,130.7078,Japan,738385.0
1377,Nehe,Dwb,48.48,124.8738,China,740000.0
1378,Zunhua,Dwa,40.1881,117.9593,China,737011.0
1379,Valenzuela,Am,14.7,120.9833,Philippines,714978.0
1380,Orūmīyeh,BSk,37.5486,45.0675,Iran,736224.0
1381,Wugang,Cfa,26.7345,110.6293,China,734870.0
1382,Osogbo,Aw,7.7597,4.5761,Nigeria,731000.0
1383,Shuangqiao,Cwa,35.0833,112.5833,China,733000.0
1384,Comodoro Rivadavia,BSk,-45.8667,-67.5,Argentina,730266.0
1385,Cagayan de Oro,Af,8.4833,124.65,Philippines,728402.0
1386,Langzhong,Cwa,31.5504,105.9938,China,728935.0
1387,Qian’an,Dwa,40.0059,118.6973,China,728160.0
1388,Lviv,Dfb,49.8419,24.0315,Ukraine,724314.0
1389,Zouping,Cwa,36.8625,117.7424,China,726722.0
1390,An Najaf,BWh,32.029,44.3396,Iraq,724700.0
1391,Sagamihara,Cfa,35.5667,139.3667,Japan,722973.0
1392,Sarasota,Cfa,27.3386,-82.5431,United States,722243.0
1393,Mississauga,Dfb,43.6,-79.65,Canada,721599.0
1394,Okayama,Cfa,34.65,133.9167,Japan,720043.0
1395,Anlu,Cfa,31.2575,113.6783,China,720000.0
1396,Dayton,Cfa,39.7797,-84.1998,United States,718353.0
1397,Dayton,Cfa,30.0292,-94.9038,United States,13987.0
1398,Dayton,Cfa,35.4912,-85.012,United States,10410.0
1399,Dayton,Cfa,39.258,-119.5677,United States,9363.0
1400,Dayton,Cfa,40.3815,-74.5137,United States,7576.0
1401,Dayton,Cfa,45.1906,-93.4758,United States,6686.0
1402,Dayton,Cfa,39.1127,-84.464,United States,5609.0
1403,Torreón,BWh,25.5394,-103.4486,Mexico,716672.0
1404,Shihezi,BWk,44.3,86.0333,China,717000.0
1405,Enugu,Aw,6.4403,7.4942,Nigeria,715774.0
1406,Soledad,Csb,10.92,-74.77,Colombia,698852.0
1407,Soledad,Csb,36.4432,-121.3426,United States,26207.0
1408,Jaboatão,As,-8.1803,-35.0014,Brazil,702621.0
1409,Yanggok,Dwa,37.6367,127.2142,South Korea,713321.0
1410,Yatou,Cwa,37.1653,122.4867,China,714211.0
1411,Santo André,Cfa,-23.6572,-46.5333,Brazil,710210.0
1412,Xichang,Cwb,27.8983,102.2706,China,712434.0
1413,Bhiwandi,Aw,19.3,73.0667,India,709665.0
1414,City of Parañaque,Am,14.4667,121.0167,Philippines,689992.0
1415,Dasmariñas,Aw,14.3294,120.9367,Philippines,703141.0
1416,Chengxiang,Cfa,31.4515,121.1043,China,709500.0
1417,Sahāranpur,Cwa,29.964,77.546,India,705478.0
1418,Warangal,Aw,17.9756,79.6011,India,704570.0
1419,Edogawa,Cfa,35.6924,139.8757,Japan,690457.0
1420,Osasco,Cfa,-23.5328,-46.7919,Brazil,694844.0
1421,Dashiqiao,Dwa,40.6328,122.5021,China,704891.0
1422,Latakia,Csa,35.5236,35.7917,Syria,700000.0
1423,Rochester,Cfa,43.168,-77.6162,United States,703952.0
1424,Rochester,Cfa,44.0151,-92.4778,United States,119942.0
1425,Rochester,Cfa,51.375,0.5,United Kingdom,62982.0
1426,Rochester,Cfa,43.299,-70.9787,United States,31526.0
1427,Rochester,Cfa,42.6866,-83.1198,United States,13296.0
1428,Rochester,Cfa,41.059,-86.196,United States,7046.0
1429,Rochester,Cfa,41.76,-70.8385,United States,5580.0
1430,Fresno,Cfa,36.7831,-119.7941,United States,703498.0
1431,Fresno,Cfa,5.1536,-75.0369,Colombia,29794.0
1432,Fresno,Cfa,29.5358,-95.4696,United States,25072.0
1433,Banjarmasin,Af,-3.319,114.5921,Indonesia,692793.0
1434,Salem,Cfa,11.65,78.1667,India,693236.0
1435,Salem,Cfa,44.9231,-123.0246,United States,266804.0
1436,Salem,Cfa,42.5129,-70.902,United States,43226.0
1437,Salem,Cfa,42.7902,-71.2202,United States,29234.0
1438,Salem,Cfa,37.2864,-80.0555,United States,25301.0
1439,Salem,Cfa,40.9049,-80.8491,United States,17571.0
1440,Salem,Cfa,40.054,-111.672,United States,8621.0
1441,Salem,Cfa,38.6279,-88.959,United States,7730.0
1442,Salem,Cfa,40.4071,-79.5141,United States,6508.0
1443,Salem,Cfa,38.6048,-86.0977,United States,6422.0
1444,Salem,Cfa,39.5681,-75.4724,United States,5235.0
1445,General Santos,Af,6.1167,125.1667,Philippines,697315.0
1446,Ḩamāh,Csa,35.1333,36.75,Syria,696863.0
1447,Bacoor,Aw,14.4624,120.9645,Philippines,664625.0
1448,Shishi,Cfa,24.7355,118.6434,China,693000.0
1449,Guadalupe,Aw,25.6775,-100.2597,Mexico,691931.0
1450,Guadalupe,Aw,22.7528,-102.5078,Mexico,215000.0
1451,Guadalupe,Aw,34.9608,-120.5735,United States,7783.0
1452,Guadalupe,Aw,33.3664,-111.9633,United States,6631.0
1453,Guadalupe,Aw,2.025,-75.7564,Colombia,22867.0
1454,Guadalupe,Aw,-6.7869,-43.5689,Brazil,10268.0
1455,Adachi,Cfa,35.7833,139.8,Japan,682326.0
1456,Qianxi,Cfa,27.0284,106.0327,China,695947.0
1457,Tolyatti,Dfb,53.5167,49.4167,Russia,693072.0
1458,Macau,BSh,22.203,113.545,Macau,568700.0
1459,Macau,BSh,-5.115,-36.6339,Brazil,28954.0
1460,Bauchi,Aw,10.3158,9.8442,Nigeria,693700.0
1461,Łódź,Cfb,51.7769,19.4547,Poland,690422.0
1462,Miluo Chengguanzhen,Cfa,28.8049,113.0745,China,692080.0
1463,Gaizhou,Dwa,40.4019,122.3499,China,691595.0
1464,Mālegaon,BSh,20.55,74.55,India,690844.0
1465,Karbalā’,BWh,32.6167,44.0333,Iraq,690100.0
1466,Leling,Cwa,37.7333,117.2167,China,689867.0
1467,São José dos Campos,Cfa,-23.1789,-45.8869,Brazil,688597.0
1468,Sevilla,Af,37.39,-5.99,Spain,684234.0
1469,Sevilla,Af,9.7,124.05,Philippines,11376.0
1470,Jianshe,Cwa,34.2189,113.7693,China,687130.0
1471,Shizuoka,Cfa,34.9756,138.3825,Japan,685589.0
1472,Jingcheng,Cfa,32.0058,120.2547,China,684360.0
1473,Kochi,Am,9.9667,76.2833,India,677381.0
1474,Allentown,Dfa,40.5961,-75.4756,United States,683794.0
1475,Tasikmalaya,Af,-7.3333,108.2,Indonesia,678027.0
1476,Rasht,Cfa,37.2833,49.6,Iran,679995.0
1477,Xinmin,Cwb,41.9952,122.8224,China,680000.0
1478,Xinmin,Cwb,35.118,108.0986,China,61441.0
1479,Xinmin,Cwb,25.4831,104.8416,China,29614.0
1480,Zhongshu,Cfa,27.8116,106.4133,China,679624.0
1481,Xigazê,Dwc,29.2649,88.8799,China,679771.0
1482,Gorakhpur,Cwa,26.7611,83.3667,India,673446.0
1483,As Sulaymānīyah,Csa,35.55,45.4333,Iraq,676500.0
1484,Zaragoza,Am,41.65,-0.8833,Spain,675301.0
1485,Zaragoza,Am,15.4531,120.7911,Philippines,49387.0
1486,Zaragoza,Am,28.4869,-100.9175,Mexico,11150.0
1487,Zaragoza,Am,17.9487,-94.6436,Mexico,11354.0
1488,Acapulco de Juárez,Aw,16.8636,-99.8825,Mexico,673478.0
1489,Bahār,Dsa,34.9069,48.4414,Iran,673405.0
1490,Tulsa,Cfa,36.1284,-95.9042,United States,671033.0
1491,Tlaquepaque,Cwa,20.6167,-103.3167,Mexico,664193.0
1492,Mazatlán,As,23.2167,-106.4167,Mexico,658354.0
1493,Songyang,Cwa,34.4603,113.028,China,668592.0
1494,Cape Coral,Cfa,26.6446,-81.9956,United States,668382.0
1495,Ch’ŏngjin,Dwb,41.8,129.7831,North Korea,667929.0
1496,Puyang Chengguanzhen,Cwa,35.7004,114.98,China,666322.0
1497,Qionghu,Cfa,28.8417,112.3595,China,667104.0
1498,Ribeirão Prêto,Aw,-21.1783,-47.8067,Brazil,666323.0
1499,Zhaodong,Dwa,46.0635,125.9773,China,666532.0
1500,Huambo,BSh,-12.7667,15.7333,Angola,665564.0
1501,Wenchang,Cfa,31.054,116.9507,China,664455.0
1502,Shulan,Dwa,44.4079,126.9429,China,663403.0
1503,Tlalnepantla,Cwb,19.5367,-99.1947,Mexico,653410.0
1504,Catia La Mar,Aw,10.6038,-67.0303,Venezuela,661897.0
1505,Sargodha,BSh,32.0836,72.6711,Pakistan,659862.0
1506,Al Hufūf,BWh,25.3608,49.5997,Saudi Arabia,660788.0
1507,Durango,Dfb,24.0167,-104.6667,Mexico,654876.0
1508,Durango,Dfb,43.1689,-2.63,Spain,29935.0
1509,Durango,Dfb,37.2659,-107.8782,United States,20203.0
1510,Jalingo,Aw,8.9195,11.3264,Nigeria,660213.0
1511,Bouaké,Aw,7.6833,-5.0331,Côte d'Ivoire,659233.0
1512,Sialkot City,Cwa,32.5,74.5333,Pakistan,655852.0
1513,San Jose del Monte,Af,14.8139,121.0453,Philippines,651813.0
1514,Ansan,Cwa,37.3236,126.8219,South Korea,652800.0
1515,Lingbao Chengguanzhen,Cwa,34.5221,110.8786,China,656571.0
1516,Hwasu-dong,Cwa,37.2,126.7667,South Korea,655350.0
1517,Huế,Am,16.4637,107.5908,Vietnam,652572.0
1518,Shimoga,Aw,13.9167,75.5667,India,654055.0
1519,Bulawayo,BSh,-20.1667,28.5667,Zimbabwe,653337.0
1520,Sanhe,BSk,39.9808,117.0701,China,652042.0
1521,Sanhe,BSk,36.5643,105.6401,China,20844.0
1522,Guntūr,Aw,16.3,80.45,India,647508.0
1523,Concord,Dfb,37.9722,-122.0016,United States,652308.0
1524,Concord,Dfb,35.3933,-80.6366,United States,261801.0
1525,Concord,Dfb,43.2305,-71.5595,United States,43627.0
1526,Concord,Dfb,42.462,-71.3639,United States,19116.0
1527,Concord,Dfb,38.5117,-90.3574,United States,17912.0
1528,Concord,Dfb,39.8741,-75.5135,United States,17745.0
1529,Concord,Dfb,42.545,-78.7075,United States,8484.0
1530,Contagem,Cwa,-19.9319,-44.0539,Brazil,648766.0
1531,Tiruppūr,Aw,11.1075,77.3398,India,650000.0
1532,Ch’ŏnan,Dwa,36.8064,127.1522,South Korea,651661.0
1533,Honchō,Dfb,35.6947,139.9825,Japan,641499.0
1534,Honchō,Dfb,35.7581,139.5297,Japan,116477.0
1535,Honchō,Dfb,41.8958,140.6944,Japan,28073.0
1536,Düsseldorf,Cfb,51.2311,6.7724,Germany,645923.0
1537,Izhevsk,Dfb,56.85,53.2167,Russia,646277.0
1538,Guixi,Cfa,28.2861,117.2083,China,647240.0
1539,Sorocaba,Cfa,-23.5019,-47.4578,Brazil,644919.0
1540,Petaling Jaya,Af,3.1073,101.6067,Malaysia,638516.0
1541,Tengyue,Cwb,25.0208,98.4972,China,644765.0
1542,Wuxue,Cfa,29.8518,115.5539,China,644247.0
1543,Kikwit,Aw,-5.0333,18.8167,Congo (Kinshasa),637736.0
1544,Colorado Springs,BSk,38.8674,-104.7606,United States,642413.0
1545,Qufu,Cwa,35.6,116.9833,China,640498.0
1546,Gaobeidian,Dwa,39.3257,115.8678,China,640280.0
1547,Ruiming,Cfa,25.8833,116.0333,China,640600.0
1548,Wrocław,Cfb,51.11,17.0325,Poland,638586.0
1549,Gold Coast,Cfa,-28.0167,153.4,Australia,638090.0
1550,Xinshi,Cfa,31.0236,113.1079,China,636776.0
1551,Ta‘izz,BWh,13.5789,44.0219,Yemen,615467.0
1552,Aracaju,As,-10.9167,-37.05,Brazil,632744.0
1553,Cochabamba,Cwb,-17.3935,-66.157,Bolivia,632013.0
1554,Jeonju,Dfa,35.8219,127.1489,South Korea,631532.0
1555,Jin’e,Cwa,29.3395,105.2868,China,633210.0
1556,Barnaul,Dfb,53.3567,83.7872,Russia,633301.0
1557,Makati City,Af,14.55,121.0333,Philippines,629616.0
1558,Stuttgart,Cfa,48.7761,9.1775,Germany,630305.0
1559,Stuttgart,Cfa,34.495,-91.5485,United States,8490.0
1560,Rotterdam,Dfb,51.9225,4.4792,Netherlands,631155.0
1561,Rotterdam,Dfb,42.8133,-74.0129,United States,29593.0
1562,Changping,Dwa,40.2248,116.1944,China,614821.0
1563,Benghazi,BSh,32.1167,20.0667,Libya,631555.0
1564,Kryvyi Rih,Dfb,47.9086,33.3433,Ukraine,629695.0
1565,Raurkela,Aw,22.2492,84.8828,India,625831.0
1566,Ḩalwān,BWh,29.8419,31.3342,Egypt,619293.0
1567,Charleston,Cfa,32.8153,-79.9628,United States,628377.0
1568,Charleston,Cfa,38.3484,-81.6323,United States,138706.0
1569,Charleston,Cfa,39.4842,-88.1781,United States,20117.0
1570,Charleston,Cfa,36.9179,-89.3344,United States,5468.0
1571,Chimalhuacán,Cwb,19.4167,-98.9,Mexico,614453.0
1572,Xinxing,Dwa,39.8734,124.1453,China,627475.0
1573,Xinxing,Dwa,47.1601,123.8,China,24317.0
1574,Suohe,Cwa,34.7879,113.392,China,626700.0
1575,Mangalore,Aw,12.8703,74.8806,India,623841.0
1576,Zhuangyuan,Dwa,37.3056,120.8275,China,626683.0
1577,Glasgow,Cfa,55.8611,-4.25,United Kingdom,626410.0
1578,Glasgow,Cfa,37.0047,-85.9263,United States,14485.0
1579,Glasgow,Cfa,39.6015,-75.7474,United States,14359.0
1580,Namangan,BSk,40.9953,71.6725,Uzbekistan,626120.0
1581,Ulyanovsk,Dfb,54.3167,48.3667,Russia,624518.0
1582,Irkutsk,Dwb,52.2833,104.3,Russia,623736.0
1583,Nānded,Aw,19.17,77.3,India,623708.0
1584,Jos,Aw,9.9333,8.8833,Nigeria,622802.0
1585,Pontianak,Af,-0.0206,109.3414,Indonesia,618388.0
1586,Villa Nueva,Cfa,14.5314,-90.5964,Guatemala,618397.0
1587,Villa Nueva,Cfa,-32.4331,-63.2475,Argentina,18818.0
1588,Springfield,Dfa,42.1155,-72.5395,United States,623401.0
1589,Springfield,Dfa,37.1943,-93.2916,United States,288090.0
1590,Springfield,Dfa,39.771,-89.6538,United States,158509.0
1591,Springfield,Dfa,39.9297,-83.7957,United States,82820.0
1592,Springfield,Dfa,44.0538,-122.981,United States,63230.0
1593,Springfield,Dfa,38.7809,-77.1839,United States,32222.0
1594,Springfield,Dfa,39.928,-75.3362,United States,24247.0
1595,Springfield,Dfa,40.0986,-75.2016,United States,19693.0
1596,Springfield,Dfa,36.4943,-86.8709,United States,18241.0
1597,Springfield,Dfa,40.6994,-74.3253,United States,17406.0
1598,Springfield,Dfa,49.9292,-96.6939,Canada,15342.0
1599,Springfield,Dfa,43.2906,-72.4809,United States,8989.0
1600,Springfield,Dfa,30.1713,-85.6089,United States,8577.0
1601,Springfield,Dfa,39.8466,-76.7112,United States,5659.0
1602,Springfield,Dfa,32.3634,-81.3029,United States,5224.0
1603,Springfield,Dfa,42.3246,-85.2371,United States,5198.0
1604,Springfield,Dfa,40.5249,-75.2998,United States,5040.0
1605,Turpan,BWk,42.95,89.1822,China,622903.0
1606,Las Piñas City,Aw,14.45,120.9833,Philippines,606293.0
1607,Meihekou,Dwa,42.5279,125.678,China,618251.0
1608,Jurong,Cfa,31.9579,119.1595,China,617706.0
1609,Feira de Santana,Af,-12.2669,-38.9669,Brazil,617528.0
1610,Khabarovsk,Dwb,48.4833,135.0667,Russia,616242.0
1611,Xinji,BSk,37.9423,115.2118,China,615919.0
1612,Serang,Af,-6.12,106.1503,Indonesia,613356.0
1613,Kandahār,BSk,31.6078,65.7053,Afghanistan,614254.0
1614,Sanya,Aw,18.2536,109.5019,China,614647.0
1615,San Miguel de Tucumán,Cwa,-26.8167,-65.2167,Argentina,605767.0
1616,Yaroslavl,Dfb,57.6167,39.85,Russia,608079.0
1617,Zhangshu,Cfa,28.0667,115.5375,China,610424.0
1618,Bağcılar,Csa,41.0406,28.8261,Turkey,556519.0
1619,Grand Rapids,Dfb,42.962,-85.6562,United States,609314.0
1620,Grand Rapids,Dfb,47.238,-93.5327,United States,11214.0
1621,Vladivostok,Dwb,43.1167,131.9,Russia,606589.0
1622,Kuantan,Af,3.8167,103.3333,Malaysia,607778.0
1623,Gothenburg,Cfb,57.6717,11.981,Sweden,604829.0
1624,Cuttack,Aw,20.465,85.8793,India,606007.0
1625,Jambi,Af,-1.59,103.61,Indonesia,602187.0
1626,Cimahi,Af,-6.8833,107.5333,Indonesia,586580.0
1627,Bacolod,Af,10.6765,122.9509,Philippines,600783.0
1628,Bacolod,Af,8.1892,124.0238,Philippines,24367.0
1629,Zhuozhou,Dwa,39.4887,115.9918,China,603535.0
1630,Uberlândia,Aw,-18.9189,-48.2769,Brazil,604013.0
1631,Tianchang,Dwa,32.6853,119.0041,China,602840.0
1632,Tianchang,Dwa,37.9987,114.0183,China,38656.0
1633,Kawaguchi,Cfa,35.8078,139.7242,Japan,593353.0
1634,Itabashi,Cfa,35.7667,139.6833,Japan,581337.0
1635,Suginami-ku,Cfa,35.6833,139.6167,Japan,583609.0
1636,Tuxtla,Aw,16.7528,-93.1167,Mexico,598710.0
1637,Tumkūr,Aw,13.3422,77.1017,India,599078.0
1638,Leipzig,Cfb,51.3333,12.3833,Germany,597215.0
1639,Balikpapan,Af,-1.1489,116.9031,Indonesia,598043.0
1640,Qamdo,ET,31.1375,97.1777,China,598862.0
1641,Durban,Cfa,-29.8583,31.025,South Africa,595061.0
1642,Chānda,Aw,19.95,79.3,India,595118.0
1643,Kagoshima,Cfa,31.58,130.5281,Japan,593754.0
1644,Al Ḩillah,BWh,23.4895,46.7564,Saudi Arabia,594605.0
1645,Al Ḩillah,BWh,32.4833,44.4333,Iraq,541034.0
1646,Makhachkala,Dfb,42.9833,47.4833,Russia,592976.0
1647,Sihui,Cfa,23.3448,112.6956,China,593400.0
1648,Mar del Plata,Cfb,-38.0,-57.55,Argentina,593337.0
1649,Irapuato,Cwa,20.6667,-101.35,Mexico,592953.0
1650,Brampton,Dfb,43.6833,-79.7667,Canada,593638.0
1651,Pereira,Af,4.8143,-75.6946,Colombia,590554.0
1652,Mission Viejo,Csa,33.6095,-117.655,United States,590249.0
1653,Dortmund,Cfb,51.5139,7.4653,Germany,587696.0
1654,Reynosa,BSh,26.0922,-98.2778,Mexico,589466.0
1655,Chuxiong,Cwb,25.0461,101.5436,China,588620.0
1656,Zāhedān,BWk,29.4833,60.8667,Iran,587730.0
1657,Jinhua,Cfa,29.1046,119.6494,China,586000.0
1658,Albany,Csb,42.6664,-73.7987,United States,586383.0
1659,Albany,Csb,37.8898,-122.3018,United States,19696.0
1660,Albany,Csb,31.5776,-84.1762,United States,89217.0
1661,Albany,Csb,44.6274,-123.0966,United States,62880.0
1662,Albany,Csb,-35.0228,117.8814,Australia,29373.0
1663,Shah Alam,Af,3.0833,101.5333,Malaysia,584340.0
1664,Knoxville,Dfa,35.9692,-83.9496,United States,586048.0
1665,Knoxville,Dfa,41.3188,-93.1024,United States,7199.0
1666,Cuiabá,Aw,-15.5958,-56.0969,Brazil,585367.0
1667,Shangzhi,Dwb,45.2116,127.962,China,585386.0
1668,Essen,Cfb,51.4508,7.0131,Germany,582415.0
1669,Essen,Cfb,51.4678,4.47,Belgium,19079.0
1670,Botou,Cwa,38.074,116.57,China,584308.0
1671,Bucaramanga,Am,7.1186,-73.1161,Colombia,581130.0
1672,Anyang,Cwa,37.3925,126.9269,South Korea,573296.0
1673,Genoa,Dfa,44.4072,8.934,Italy,580097.0
1674,Genoa,Dfa,42.0926,-88.6964,United States,6467.0
1675,Port Sudan,BWh,19.6158,37.2164,Sudan,579942.0
1676,Puente Alto,Csb,-33.6167,-70.5833,Chile,573935.0
1677,Dehra Dūn,Cwa,30.318,78.029,India,578420.0
1678,Aţ Ţā’if,BWh,21.2667,40.4167,Saudi Arabia,579970.0
1679,Bakersfield,BSh,35.3529,-119.0359,United States,579295.0
1680,Wancheng,BSk,18.8,110.4,China,578600.0
1681,Wancheng,BSk,37.6273,114.5324,China,41080.0
1682,Málaga,Csa,36.7194,-4.42,Spain,577405.0
1683,Hachiōji,Cfa,35.6667,139.3167,Japan,575721.0
1684,Ogden,Cfa,41.2278,-111.9682,United States,578523.0
1685,Ogden,Cfa,43.1646,-77.822,United States,20341.0
1686,Ogden,Cfa,34.2656,-77.7965,United States,8408.0
1687,Xiulin,Cfa,29.7211,112.4037,China,577022.0
1688,Fu’an,Cfa,27.1,119.6333,China,577000.0
1689,Tomsk,Dfb,56.4886,84.9522,Russia,572740.0
1690,Tonalá,Aw,20.6167,-103.2333,Mexico,569913.0
1691,Tonalá,Aw,16.0894,-93.7514,Mexico,35322.0
1692,Kumul,BWk,42.8322,93.5155,China,572400.0
1693,Bristol,Dfb,51.45,-2.5833,United Kingdom,567111.0
1694,Bristol,Dfb,36.5572,-82.2154,United States,70243.0
1695,Bristol,Dfb,41.6812,-72.9407,United States,59947.0
1696,Bristol,Dfb,40.1216,-74.8667,United States,53649.0
1697,Bristol,Dfb,41.6827,-71.2694,United States,22145.0
1698,Bristol,Dfb,36.618,-82.1606,United States,16762.0
1699,Bristol,Dfb,42.5378,-88.0149,United States,5142.0
1700,Luofeng,Dwa,37.359,120.396,China,570898.0
1701,Lingyuan,Dwb,41.2407,119.3957,China,570660.0
1702,Irbid,Csa,32.5556,35.85,Jordan,569068.0
1703,Baton Rouge,Cfa,30.4418,-91.131,United States,570308.0
1704,Huzhou,Cfa,30.8695,120.0958,China,569000.0
1705,Wencheng,Am,19.6167,110.75,China,568900.0
1706,Bremen,Cfa,53.0769,8.8089,Germany,566573.0
1707,Bremen,Cfa,33.7085,-85.1495,United States,6945.0
1708,Ciudad Bolívar,Af,8.1167,-63.55,Venezuela,567953.0
1709,Ciudad Bolívar,Af,5.8494,-76.0203,Colombia,27458.0
1710,Durgāpur,Cwa,23.55,87.32,India,566517.0
1711,Durgāpur,Cwa,25.2461,87.9046,India,5366.0
1712,Orenburg,Dfa,51.7667,55.1,Russia,564443.0
1713,Shenzhou,BSk,38.0005,115.5541,China,566087.0
1714,Āsansol,Aw,23.6833,86.9667,India,563917.0
1715,Akron,Dfa,41.0798,-81.5219,United States,565208.0
1716,Kuiju,Cwa,36.8528,119.3904,China,564501.0
1717,New Haven,Dfa,41.3112,-72.9246,United States,564830.0
1718,New Haven,Dfa,41.0675,-85.0175,United States,15922.0
1719,Zhenzhou,Cfa,32.2739,119.1619,China,564021.0
1720,Surakarta,Am,-7.5667,110.8167,Indonesia,552118.0
1721,Jieshou,Cwa,33.2605,115.3618,China,561956.0
1722,Benguela,BSh,-12.55,13.4167,Angola,561775.0
1723,Ensenada,BSk,31.8578,-116.6058,Mexico,557430.0
1724,Dangyang,Cfa,30.8258,111.791,China,560000.0
1725,Columbia,Dfb,34.0376,-80.9037,United States,560041.0
1726,Columbia,Dfb,38.9478,-92.3256,United States,141645.0
1727,Columbia,Dfb,39.2004,-76.859,United States,103991.0
1728,Columbia,Dfb,35.6235,-87.0486,United States,40663.0
1729,Columbia,Dfb,38.4581,-90.2156,United States,10513.0
1730,Columbia,Dfb,40.0348,-76.4944,United States,10355.0
1731,Columbia,Dfb,31.2564,-89.8266,United States,6468.0
1732,Columbia,Dfb,41.6939,-72.3072,United States,5417.0
1733,Kemerovo,Dfb,55.3333,86.0667,Russia,556920.0
1734,Herāt,BSk,34.3738,62.1792,Afghanistan,556205.0
1735,Dresden,Cfb,51.05,13.74,Germany,554907.0
1736,Bhāvnagar,BSh,21.765,72.1369,India,554978.0
1737,Juiz de Fora,Cwa,-21.75,-43.35,Brazil,555284.0
1738,Luanzhou,Dwa,39.7396,118.6978,China,554315.0
1739,Hamadān,Dsa,34.8,48.5167,Iran,554406.0
1740,Novokuznetsk,Dfb,53.75,87.1167,Russia,552105.0
1741,Nellore,Aw,14.4333,79.9667,India,547621.0
1742,Chiclayo,BWh,-6.763,-79.8366,Peru,552508.0
1743,Manchester,Cfa,53.4794,-2.2453,United Kingdom,547627.0
1744,Manchester,Cfa,42.9848,-71.4447,United States,162877.0
1745,Manchester,Cfa,41.7753,-72.5242,United States,57805.0
1746,Manchester,Cfa,39.9651,-74.3738,United States,43503.0
1747,Manchester,Cfa,38.583,-90.5065,United States,18073.0
1748,Manchester,Cfa,35.463,-86.0774,United States,12433.0
1749,Manchester,Cfa,37.4902,-77.5396,United States,10919.0
1750,Manchester,Cfa,42.9921,-77.1897,United States,9233.0
1751,Manchester,Cfa,47.5519,-122.5517,United States,5673.0
1752,Manchester,Cfa,39.6584,-76.8881,United States,5367.0
1753,Al Ḩudaydah,BWh,14.8022,42.9511,Yemen,548433.0
1754,Amrāvati,As,20.9333,77.75,India,549370.0
1755,Cabinda,Aw,-5.5667,12.2,Angola,550000.0
1756,Korla,BWk,41.7646,86.1527,China,549324.0
1757,Huanghua,Dwa,38.371,117.3329,China,548507.0
1758,Muntinlupa City,Am,14.3833,121.05,Philippines,543445.0
1759,Londrina,Cfa,-23.31,-51.1628,Brazil,548249.0
1760,Tabūk,BWh,28.3838,36.555,Saudi Arabia,547957.0
1761,Heroica Matamoros,BSh,25.8797,-97.5042,Mexico,541979.0
1762,Samarkand,Csa,39.6542,66.9597,Uzbekistan,546303.0
1763,Hannover,Cfb,52.3744,9.7386,Germany,542668.0
1764,Valledupar,Aw,10.4603,-73.2597,Colombia,544134.0
1765,Fengcheng,BSk,40.4543,124.0646,China,543933.0
1766,Fengcheng,BSk,37.4313,112.027,China,128571.0
1767,Ajmer,BSh,26.468,74.639,India,542321.0
1768,Ghulja,Dfb,43.9,81.35,China,542507.0
1769,Tinnevelly,Aw,8.7289,77.7081,India,542200.0
1770,City of Calamba,Am,14.2167,121.1667,Philippines,539671.0
1771,Fuding,Cfa,27.2,120.2,China,542000.0
1772,An Nāşirīyah,BWh,31.0439,46.2575,Iraq,541600.0
1773,Ibagué,Af,4.4378,-75.2006,Colombia,541101.0
1774,Ryazan,Dfb,54.6167,39.7167,Russia,537622.0
1775,Kassala,BWh,15.45,36.4,Sudan,536009.0
1776,Chang’an,Cfa,29.4761,113.448,China,537500.0
1777,Kermān,BSk,30.2833,57.0667,Iran,537718.0
1778,Kōtō-ku,Cfa,35.6667,139.8167,Japan,523117.0
1779,Poznań,Cfb,52.4083,16.9336,Poland,533830.0
1780,Aksu,BWk,41.1664,80.25,China,535657.0
1781,Salta,Cwa,-24.7883,-65.4106,Argentina,535303.0
1782,Astrakhan,Dfb,46.3333,48.0167,Russia,532504.0
1783,Astrakhan,Dfb,51.5228,69.795,Kazakhstan,6313.0
1784,Wuhai,BWk,39.6844,106.8158,China,532902.0
1785,Mingguang,Cfa,32.7816,117.9899,China,532732.0
1786,Naberezhnyye Chelny,Dfb,55.7,52.3333,Russia,529797.0
1787,Antwerp,Cfb,51.2211,4.3997,Belgium,529247.0
1788,Touba,Aw,14.8667,-15.8833,Senegal,529176.0
1789,Touba,Aw,8.2833,-7.6833,Côte d'Ivoire,31844.0
1790,Ardabīl,Dsa,38.25,48.3,Iran,529374.0
1791,Bīkaner,BWh,28.0181,73.3169,India,529007.0
1792,Lyon,Cfb,45.76,4.84,France,518635.0
1793,Agartala,Aw,23.8333,91.2667,India,522613.0
1794,Ndola,Cwa,-12.9683,28.6337,Zambia,528330.0
1795,Himeji,Cfa,34.8167,134.6833,Japan,527596.0
1796,Tultitlán de Mariano Escobedo,Cwb,19.645,-99.1694,Mexico,520557.0
1797,Villavicencio,Cfb,4.1425,-73.6294,Colombia,527668.0
1798,Ailan Mubage,Dfb,43.9167,81.3167,China,526745.0
1799,Bandar ‘Abbās,BWh,27.2,56.25,Iran,526648.0
1800,Bắc Ninh,Cwa,21.1861,106.0763,Vietnam,520000.0
1801,Ciudad Apodaca,BSh,25.7833,-100.1833,Mexico,523370.0
1802,Santa Teresa del Tuy,Aw,10.2333,-66.65,Venezuela,525321.0
1803,Maipú,Csb,-33.5167,-70.7667,Chile,521627.0
1804,Penza,Dfb,53.2,45.0,Russia,523726.0
1805,Soacha,Cfb,4.5781,-74.2144,Colombia,522442.0
1806,Port Said,BWh,31.25,32.2833,Egypt,524433.0
1807,Meknès,Csa,33.8833,-5.55,Morocco,520428.0
1808,Arāk,Csa,34.08,49.7,Iran,520944.0
1809,Pohang,Cfa,36.0322,129.365,South Korea,520305.0
1810,Longzhou,Cfa,30.32,112.23,China,520000.0
1814,Jinghong,Cwa,22.0057,100.7948,China,519935.0
1815,Sheffield,Cfa,53.3808,-1.4703,United Kingdom,518090.0
1816,Sheffield,Cfa,34.757,-87.6977,United States,8901.0
1817,Utsunomiya,Cfa,36.55,139.8833,Japan,518197.0
1818,Suez,BWh,29.9667,32.5333,Egypt,516959.0
1819,Nuremberg,Cfb,49.4539,11.0775,Germany,515543.0
1820,Liverpool,Cfb,53.4075,-2.9919,United Kingdom,513441.0
1821,Mesa,BWh,33.4017,-111.718,United States,518012.0
1822,Surrey,Cfb,49.19,-122.8489,Canada,517887.0
1823,Heshan,Cfa,22.7697,112.9578,China,516500.0
1824,Heshan,Cfa,23.8163,108.8847,China,114496.0
1825,Zhoushan,Cfa,29.9887,122.2049,China,516000.0
1826,Ujjain,Csa,23.1828,75.7772,India,515215.0
1827,Jiaji,Am,19.2431,110.4642,China,515700.0
1828,Santa Marta,Aw,11.2361,-74.2017,Colombia,515556.0
1829,Joinvile,Cfa,-26.3039,-48.8458,Brazil,515288.0
1830,Beining,Dwa,41.5961,121.7928,China,514898.0
1831,Hải Dương,Cwa,20.9399,106.3309,Vietnam,507469.0
1832,Carrefour,Aw,18.5333,-72.4,Haiti,511345.0
1833,Maturín,Aw,9.7457,-63.1832,Venezuela,514046.0
1834,Homyel’,Dfb,52.4417,30.9833,Belarus,510300.0
1835,Ananindeua,Af,-1.3658,-48.3719,Brazil,510834.0
1836,Yanji,Dwb,42.9044,129.5067,China,513072.0
1837,Ulhāsnagar,Aw,19.2167,73.15,India,506098.0
1838,Lipetsk,Dfb,52.6167,39.6,Russia,510439.0
1839,Al ‘Amārah,BWh,31.8333,47.15,Iraq,511500.0
1840,Choloma,Af,15.6333,-88.0,Honduras,510456.0
1841,Sevastopol,Cfa,44.6,33.5333,Ukraine,509992.0
1842,Encheng,Cwa,22.1879,112.3131,China,509700.0
1843,Aden,BWh,12.8,45.0333,Yemen,507355.0
1844,Kitwe,Cwa,-12.8208,28.2119,Zambia,504194.0
1845,Matsuyama,Cfa,33.8333,132.7667,Japan,506743.0
1846,Jhānsi,Csa,25.4486,78.5696,India,507000.0
1847,Kashgar,BWk,39.45,75.9833,China,506640.0
1848,Palm Bay,Cfa,27.955,-80.6627,United States,507002.0
1849,Pingtung,Am,22.6761,120.4942,Taiwan,503530.0
1850,Lapu-Lapu City,Am,10.3127,123.9488,Philippines,497604.0
1851,Montería,Aw,8.76,-75.8856,Colombia,505334.0
1852,Ichikawa,Cfa,35.7219,139.9311,Japan,496657.0
1853,Ichikawa,Cfa,34.9894,134.7631,Japan,11023.0
1854,Imus,Aw,14.4297,120.9367,Philippines,496794.0
1855,Davangere,Aw,14.4667,75.9167,India,503564.0
1856,Jammu,Cwa,32.7333,74.85,India,502197.0
1857,Yiwu,Cfa,29.3081,120.0698,China,502000.0
1858,Belas,Csa,-9.0689,13.1608,Angola,500000.0
1859,Belas,Csa,38.7754,-9.2716,Portugal,21172.0
1860,Talatona,BSh,-8.9167,13.1833,Angola,500000.0
1861,Ile-Ife,Aw,7.4667,4.5667,Nigeria,501952.0
1862,Kirov,Dfb,58.6,49.65,Russia,501468.0
1863,Kirov,Dfb,54.0833,34.3,Russia,30520.0
1864,Jiaxing,Cfa,30.7522,120.75,China,500100.0
1865,Mykolaiv,Dfb,46.9667,32.0,Ukraine,498748.0
1866,Provo,Dfa,40.2457,-111.6457,United States,500617.0
1867,Meicheng,Cfa,30.6412,116.5689,China,500292.0
1868,Niterói,Aw,-22.8833,-43.1036,Brazil,496696.0
1869,Matsudo,Cfa,35.7878,139.9031,Japan,492367.0
1870,Sukkur,BWh,27.6995,68.8673,Pakistan,499900.0
1871,Oujda-Angad,Csa,34.6867,-1.9114,Morocco,494252.0
1872,Taozhou,Cfa,30.8956,119.411,China,499132.0
1873,Higashi-ōsaka,Cfa,34.6794,135.6008,Japan,490819.0
1874,Johor Bahru,Af,1.4556,103.7611,Malaysia,497097.0
1875,Worcester,Cfa,42.2705,-71.8079,United States,498328.0
1876,Worcester,Cfa,52.192,-2.22,United Kingdom,101891.0
1877,Worcester,Cfa,-33.645,19.4436,South Africa,97098.0
1878,Worcester,Cfa,40.1899,-75.3522,United States,10406.0
1879,Hongjiang,Cfa,27.1167,109.95,China,498100.0
1880,Chimbote,BWh,-9.0745,-78.5936,Peru,497875.0
1881,Duisburg,Cfb,51.4322,6.7611,Germany,495885.0
1882,Qaraghandy,Dfb,49.8,73.1167,Kazakhstan,497777.0
1883,Ixtapaluca,Cwb,19.3186,-98.8822,Mexico,495566.0
1884,Dengtacun,Dwa,41.4237,123.3203,China,496122.0
1885,Zhijiang,Cfa,30.4271,111.7506,China,495995.0
1886,Zhijiang,Cfa,27.4367,109.678,China,113907.0
1887,Chengjiao,Cwa,35.4043,114.0593,China,495744.0
1888,Beipiao,Dwa,41.802,120.7621,China,496164.0
1889,Suoluntun,Dwa,45.1804,124.82,China,495900.0
1890,Murrieta,Csa,33.572,-117.1909,United States,496046.0
1891,Kota Bharu,Af,6.1333,102.25,Malaysia,491237.0
1892,Ciudad López Mateos,Cwb,19.55,-99.2833,Mexico,489937.0
1893,Celaya,BSh,20.5222,-100.8122,Mexico,494304.0
1894,Vinh,Am,18.6733,105.6922,Vietnam,490000.0
1895,Duyun,Cfa,26.2672,107.5143,China,493574.0
1896,Los Mochis,Csa,25.7835,-108.9937,Mexico,490000.0
1897,Nyala,BWh,12.05,24.8833,Sudan,492984.0
1898,Larkana,BWh,27.56,68.2264,Pakistan,490508.0
1899,Nishinomiya-hama,Cfa,34.7333,135.3333,Japan,487010.0
1900,‘Ajmān,BWh,25.3994,55.4797,United Arab Emirates,490035.0
1901,Cheboksary,Dfb,56.1333,47.25,Russia,489498.0
1902,Yuanping,Dwa,38.7299,112.7134,China,491213.0
1903,Toulouse,Cfb,43.6045,1.444,France,486828.0
1904,Edinburgh,Cfb,55.953,-3.189,United Kingdom,488050.0
1905,Belgaum,Aw,15.8667,74.5,India,488157.0
1906,Tula,Dfb,54.2,37.6167,Russia,485221.0
1907,Shahe,BSk,36.8622,114.502,China,486329.0
1908,Serra,Aw,-20.1289,-40.3078,Brazil,485376.0
1909,Greenville,Cfa,34.8353,-82.3647,United States,484465.0
1910,Greenville,Cfa,35.5956,-77.3768,United States,130118.0
1911,Greenville,Cfa,5.0111,-9.0388,Liberia,10374.0
1912,Greenville,Cfa,33.385,-91.0514,United States,29613.0
1913,Greenville,Cfa,33.1116,-96.1098,United States,28827.0
1914,Greenville,Cfa,40.1043,-84.6209,United States,12720.0
1915,Greenville,Cfa,43.1797,-85.2533,United States,9672.0
1916,Greenville,Cfa,41.4052,-80.3837,United States,9594.0
1917,Greenville,Cfa,41.88,-71.5549,United States,8695.0
1918,Greenville,Cfa,40.9981,-73.8194,United States,7814.0
1919,Greenville,Cfa,31.8437,-86.6379,United States,7395.0
1920,Greenville,Cfa,38.8866,-89.3893,United States,6417.0
1921,Gulbarga,BSh,17.3333,76.8333,India,483615.0
1922,Dunhua,Dwb,43.3667,128.2333,China,483811.0
1923,Brookhaven,Cfb,40.8321,-72.9518,United States,483546.0
1924,Brookhaven,Cfb,33.8744,-84.3314,United States,55554.0
1925,Brookhaven,Cfb,31.5803,-90.4432,United States,11947.0
1926,Brookhaven,Cfb,39.8715,-75.3918,United States,8049.0
1927,Brookhaven,Cfb,39.6062,-79.8812,United States,6043.0
1928,Az Zarqā’,BSk,32.0833,36.1,Jordan,481300.0
1929,Sylhet,Am,24.9,91.8667,Bangladesh,479837.0
1930,Wichita,Cfa,37.6896,-97.3442,United States,482249.0
1931,Toledo,Cfb,41.6639,-83.5822,United States,482111.0
1932,Toledo,Cfb,10.3833,123.65,Philippines,207314.0
1933,Toledo,Cfb,-24.7139,-53.7428,Brazil,119313.0
1934,Toledo,Cfb,39.8567,-4.0244,Spain,85449.0
1935,Toledo,Cfb,-22.7428,-46.3719,Brazil,5764.0
1936,Kaihua,Cwa,23.3715,104.2437,China,481505.0
1937,Jāmnagar,BSh,22.47,70.07,India,479920.0
1938,Fuyuan,Dwb,48.3614,134.2875,China,480000.0
1939,Dhūlia,BSh,20.9,74.7833,India,479073.0
1940,Gaya,Aw,24.75,85.0167,India,474093.0
1941,Gaya,Aw,11.8878,3.4467,Niger,45465.0
1942,Florianópolis,Cfa,-27.5933,-48.553,Brazil,477798.0
1943,Chiniot,BSh,31.7167,72.9833,Pakistan,477781.0
1944,Jiannan,Cwa,31.3446,104.1994,China,477868.0
1945,Ōita,Cfa,33.2333,131.6067,Japan,477186.0
1946,Kaliningrad,Cfb,54.7167,20.5,Russia,475056.0
1947,Nangong,BSk,37.3606,115.3803,China,476096.0
1948,Kurashiki,Cfa,34.585,133.7719,Japan,474862.0
1949,Staten Island,Cfa,40.5834,-74.1496,United States,476143.0
1950,Küçükçekmece,Csa,41.0,28.8,Turkey,469431.0
1951,San Juan,Am,-31.5375,-68.5364,Argentina,471389.0
1952,San Juan,Am,18.4037,-66.0636,Puerto Rico,323279.0
1953,San Juan,Am,14.6,121.0333,Philippines,126347.0
1954,San Juan,Am,18.81,-71.23,Dominican Republic,132177.0
1955,San Juan,Am,13.826,121.396,Philippines,114068.0
1956,San Juan,Am,9.9609,-84.0731,Costa Rica,25866.0
1957,San Juan,Am,16.6667,120.3333,Philippines,40507.0
1958,San Juan,Am,26.1903,-98.152,United States,37008.0
1959,San Juan,Am,17.7422,120.4583,Philippines,26674.0
1960,San Juan,Am,9.159,123.494,Philippines,16363.0
1961,San Juan,Am,10.2667,125.1833,Philippines,14912.0
